osm_id,osm_type,lat,lon,name,addr_region,addr_city,addr_street,addr_housenumber,operator,capacity
661642648,node,43.1145304,131.9122743,Открытая (сменная) школа №1,,,,,,
695008699,node,43.3645627,132.1728143,Школа 6,,,,,,
921105417,node,48.491048,135.0575387,Музыкальная школа,,,,,,
1014962558,node,42.7943574,132.8984968,Школа  № 1 Полюс,,,,,,
1086168474,node,42.7739331,132.8510507,,,,,,,
1198120328,node,42.7699726,133.0582669,МОУСОШ №19,,,,,,
1262017686,node,44.1659858,133.2595303,Вечерняя школа,,,,,,
1262017696,node,44.1633457,133.2579284,Школа «Родник»,,,,,,
1269079282,node,44.1679588,133.2655858,Детская школа искусств,,,,,,
1347832904,node,42.8365992,132.9003381,Школа №5,,,,,,
1363999220,node,42.7995363,132.8716595,"МАОУ ""СОШ №24"" НГО",,,,,,
1507828949,node,42.8445992,132.8945676,Музыкальная школа,,,,,,
1742818543,node,42.7764189,132.872984,Школа №11,,,,,,
1750947079,node,48.4811532,135.0683905,Школа английского языка ELC,,,,,,
1756869243,node,43.1201118,131.886375,Школа биомедицины / экономики и менеджмента,,,,,,
1803551699,node,43.1485277,131.9164887,Вечерняя (сменная) школа №18,,,,,,
1803551705,node,43.0944319,131.8949089,Вечерняя (сменная) школа №7,,,,,,
1803551709,node,43.0929583,131.8625515,Вечерняя (сменная) школа №2,,,,,,
1803551715,node,43.1177437,131.8822936,Открытая (сменная) школа №2,,,,,,
2253523802,node,48.4882852,135.2235481,МБОУ СОШ с. Мирное,,,,,,
2336660749,node,43.798036,131.9387262,"ЧОУ ""Префект-Гимназия""",,,,,,
2664412485,node,47.6407504,132.5083306,一中,,,,,,
2692210712,node,46.4483335,134.3012176,Детская художественная школа,,,,,,
2945379666,node,48.2412241,132.447067,,,,,,,
3080261263,node,47.7769468,135.626555,,,,,,,
3224648066,node,43.1163815,131.8902985,Cпециальная (коррекционная) школа-интернат №1,,,,,,
3235503862,node,47.5364146,134.7587466,школа искуств,,,,,,
3357197880,node,47.9406095,132.0256383,Средняя школа,,,,,,
3539587930,node,46.7177609,134.0271291,,,,,,,
3896522073,node,44.5782799,132.8258629,МБОУ СОШ №11,,,,,,
4131719789,node,43.3102723,134.6052298,МКОУ СОШ с. Милоградово,,,,,,
4450719391,node,47.8996603,134.9490827,Школа #3,,,,,,
4522791992,node,46.8107374,134.2772219,МОУСОШ #3,,,,,,
4750098724,node,48.4299604,135.1082036,"Образовательный центр ""Развитие""",,,,,,
4792488222,node,43.8558727,131.9575393,Тимирязевская средняя школа,,,,,,
4811206321,node,42.8370153,132.889695,Средняя школа N14,,,,,,
4852879510,node,43.1251205,131.9484562,Волна,,,,,,
4903155351,node,43.3553382,132.1798959,Детская школа искусств №1,,,,,,
4944993124,node,44.0823344,132.5809786,МБОУСОШ#7,,,,,,
5197357832,node,43.1253851,131.9469656,Детская школа искусств №4,,,,,Администрация города Владивостока управление культуры,
5257767023,node,44.6011609,132.8198623,МБОУ СОШ №1,,,,,Gov,
5264882445,node,47.0503469,130.2749265,鹤林小学,,,,,,
5264882452,node,47.0477373,130.2728161,鹤林中学,,,,,,
5301465643,node,45.2915486,130.9533445,冠军补课班,,,,,,
5408899313,node,44.6921699,130.4732753,开发区职教中心,,,,,,
5447610387,node,45.2969932,130.924384,篮球学校,,,,,,
5774236081,node,45.3054573,130.9764964,鑫东方学校,,,,,,
5805653228,node,45.5408385,131.8656073,密山实验小学,,,,,,
5805653229,node,45.5379758,131.867587,密山一中,,,,,,
5805653230,node,45.5372113,131.8572912,明德小学,,,,,,
5805653236,node,45.53891,131.8551345,密山三中,,,,,,
5805653238,node,45.5492803,131.88931,二中,,,,,,
5805653330,node,45.5476238,131.8436111,密山四中,,,,,,
5805653331,node,45.5471876,131.8482686,农垦子弟学校,,,,,,
5809678871,node,45.3151665,130.9879047,育才中学,,,,,,
5872595613,node,45.3365546,130.9805749,永胜小学,,,,,,
5919710693,node,44.184023,132.2298042,Ярославская детская школа исскуств,,,,,,
5960392357,node,45.3411634,131.0020094,立新小学,,,,,,
6424895320,node,42.8117703,132.8634069,ТелеШкола,,,,,,
6669203749,node,43.3013465,132.0818008,"Частная школа ""Эврика Театр""",,,,,,
6680727185,node,44.425,133.4734,Средняя школа села Яковлевка,,,,,,
6715106721,node,44.1867231,132.2301721,МБОУ СОШ,,,,,,
6790347985,node,44.5498244,135.5176081,школа 17,,,,,,
6991281195,node,42.8375734,132.9027193,художественная школа,,,,,,
6991288791,node,42.8093307,132.867399,Детская художественная школа № 1,,,,,,
7618344185,node,43.4781142,133.3645716,молчановка голец,,,,,,
8336499917,node,42.9589765,131.7385341,,,,,,,
8347198719,node,48.4694685,135.0745865,Лестер,,,,,,
8356639117,node,48.4687799,135.0697946,Музыкальная школа “Тополёк «,,,,,,
8430296646,node,48.4809445,135.1450768,КГКОУ «Школа-интернат № 4»,,,,,,
8507132917,node,48.4728492,135.1061238,,,,,,,
8727831532,node,45.0945191,130.6948454,小学部,,,,,,
8841324885,node,45.3009203,130.9411951,爱声语言训练学校,,,,,,
9171282017,node,44.7372449,132.0433137,Школа N 1,,,,,,
9254976623,node,48.4781632,135.0748097,Центр семейного образования «Крылья»,,,,,,
9555154724,node,45.9132222,133.8031299,Средняя школа №12,,,,,,
9555354520,node,43.7440106,135.2849337,Средняя школа,,,,,,
9555413200,node,44.359829,135.8080557,Средняя школа №3,,,,,,
9555424582,node,44.5487276,135.5578592,Начальная школа № 21,,,,,,
9555513286,node,44.6268664,135.339683,КГОБУ Краснореченская КШИ,,,,,,
9567125256,node,43.9583254,133.0568576,Детская школа искусств,,,,,,
9567709211,node,42.8417906,132.8880635,"МДОУ ДОД ДЮСШ ""ЮНИОР""",,,,,,
9567913923,node,42.8049711,132.8678423,"МБОУ ДОД Дом детского творчества ""Юность""",,,,,,
9567975287,node,42.7960915,132.865321,"МБОУ ДОД ДЮСШ ЮНИОР ""Бригантина""",,,,,,
9568508181,node,42.7738337,133.05704,Детская школа исскуств,,,,,,
9568518088,node,42.7760526,133.0587995,Детская художественная школа №5,,,,,,
9568523153,node,42.7834961,133.1241247,Средняя школа,,,,,,
9569735262,node,42.8723041,132.6692381,МБУ ДО Центр внешкольной работы,,,,,,
9569776875,node,42.8569951,132.6869729,МБУ ДО Центр внешкольной работы,,,,,,
9579656986,node,43.794527,131.9443215,Вечерняя школа №2,,,,,,
9582161680,node,43.5685101,131.9414234,МБОО ДОД ДШИ им.Чайковского,,,,,,
9582211509,node,43.5026844,131.9019976,"МБОУ ДО ЦДТ ""Ровесник""",,,,,,
9584325136,node,43.3466764,132.1604499,"ДЮСШ ""Феникс""",,,,,,
9589792646,node,43.297052,132.0633714,"АНО ЦДО ""Магия знаний""",,,,,,
9589800551,node,43.3003237,132.0651001,МБУДО Детская школа искусств №7,,,,,,
9591165007,node,43.1749252,131.908156,"Центр счастливой семьи ""Маленький волшебник""",,,,,,
9591226193,node,43.1626527,131.9115315,Азиатско-тихоокеанская школа,,,,,,
10732245605,node,42.8769901,132.3541348,Школа № 253 им. Т.И. Островской,,,,,,
11332775623,node,45.7725366,132.9802742,中共虎林市委党校,,,,,,
11332775638,node,45.7672886,132.9427965,虎林市高级中学,,,,,,
11332775639,node,45.764693,132.9431449,虎林市实验中学,,,,,,
11332786979,node,45.7649499,132.9838541,虎林三小学,,,,,,
11399466435,node,47.9965734,134.1266148,前哨农场学校,,,,,,
11399466437,node,47.9996618,134.1413551,寒葱沟镇中学,,,,,,
11399466441,node,48.1875374,134.2858273,浓桥镇八一中学,,,,,,
11457219694,node,48.4825264,135.0598656,Индиго,,,,,,
11507342160,node,48.4382246,135.1060923,KIBEROne,,Хабаровск,,,,
11507430075,node,48.4721878,135.0738696,KIBEROne,,Хабаровск,,,,
11507431541,node,48.4880964,135.0784962,KIBEROne,,Хабаровск,,,,
11549381361,node,46.9347211,132.740915,宏胜中小学校,,,,,,
11561543173,node,44.3950292,131.130953,绥芬河市第二中学,,,,,,
11760310204,node,45.2995395,130.9942236,鸡西实验中学东校区,,,,,,
11944888833,node,45.2531161,131.1363537,新建小学,,,,,,
11957030455,node,42.7894735,132.858685,"МАОУ ""СОШ ""Лидер-2"" НГО",,,,,,
11957030654,node,42.8025857,132.8723917,"Кгобу ""Находкинская КШИ""",,,,,,
11963617704,node,43.3241803,131.8605011,Начальная школа - детский сад,,,,,,
12070382099,node,42.9132169,132.5080257,МБОУ Средняя общеобразовательная школа № 257,,,,,,
12084788534,node,45.3160379,130.9946661,黑龙江外事学校,,,,,,
42390417,way,44.6135189,135.4314511,МОБУ СОШ №16,,,,,,
42390419,way,44.5500384,135.5611674,"Гимназия ""Исток""",,,,,,
42444794,way,44.5519995,135.561895,Начальная школа № 21,,,,,,
67792682,way,48.434698,135.1159166,Школа № 24,,,,,,
74128767,way,48.3948662,135.116299,,,,улица Ворошилова,36,,
74133332,way,48.3917017,135.1084726,школа интернат,,,,,,
79498928,way,43.101006,131.9436792,Детская музыкальная школа №2,,Владивосток,улица Борисенко,18,,
87222155,way,42.7743615,133.0584422,Средняя общеобразовательная школа № 20,,,Восточный проспект,7,,
87256523,way,42.7698049,133.0582659,Средняя общеобразовательная школа № 19,,,улица Бабкина,5,,
89384244,way,48.4541011,135.1814346,,,,улица Воровского,24Б,,
90555652,way,48.4515069,135.1139969,Лицей «Вектор»,,,,,,
91213957,way,48.3817869,135.1184455,Школа № 85,,,,,,
91366355,way,48.3922941,135.1007015,Школа № 56,,,,,,
92203646,way,48.4681143,135.1254231,Многопрофильный лицей,,,,,,
95531001,way,42.8122877,132.8688585,Школа №17,,,Владивостокская улица,22,,
98319818,way,42.8230951,132.8775351,Школа №9,,Находка,улица Мичурина,10А,,
98319975,way,42.8239928,132.8782992,Школа №23,,,улица Мичурина,12А,,
98575150,way,44.5594979,135.5767814,МОУ СООШ № 1,,,,,,
98575529,way,44.5519949,135.5652281,МОУ СООШ № 21,,,,,,
98678753,way,44.5487501,135.5537489,Средняя общеобразовательная школа №2,,,,,,
98844546,way,44.5499188,135.5175779,"Средняя общеобразовательная школа №17 ""Родник""",,,,,,
98855649,way,43.3692985,132.3138919,Детская школа исскуств,,,Каширская улица,51,,
99346715,way,42.8349065,132.8960634,,,Находка,проспект Мира,10,,
103145113,way,43.1044246,131.871169,Детская художественная школа №1,,Владивосток,Верхнепортовая улица,40,,
103386557,way,43.1508358,131.9174463,Детская школа искусcтв №3,,Владивосток,Волховская улица,15,,
107119639,way,44.5639299,135.619925,МОУ СООШ № 8,,,,,,
107283637,way,42.7980449,132.8668932,МБОУ Гимназия №1,,,Верхне-Морская улица,96,,
109434199,way,44.1746643,133.2630694,МОБУ Лицей № 9,,Арсеньев,Октябрьская улица,63/2,,
109673228,way,42.7870954,132.8541172,КГОБУ Коррекционная школа,,,улица Сенявина,15,,
109673270,way,42.7830654,132.8528584,МОУ СОШ №3,,,Находкинский проспект,108,,
109673287,way,42.7895287,132.8582524,Школа №6,,,Северная улица,10,,
109673389,way,42.7895545,132.8590443,"Начальная школа ""Лидер-2""",,,Северная улица,8,,
109673458,way,42.7817234,132.8463366,МБОУ СОШ №22,,Находка,Юбилейная улица,12,,
109862254,way,44.1374903,133.293947,Школа №6,,,Клиновая улица,1А,,
112438955,way,43.7841608,131.9763952,Школа №32,,,,,,
113338222,way,42.8609494,131.3958627,Частная школа Комашинского,,,улица 50 лет Октября,10А,,
113338236,way,42.8587894,131.3955505,СОШ №1,,,Молодёжная улица,8А,,
117033700,way,43.2065429,131.9458461,Владивостокская международная СОШ - корпус №2,,Владивосток,улица Горького,10,,
118042699,way,43.1125687,132.3546948,Начальная школа № 6,,,,,,
118563555,way,43.1130696,132.3585258,Детская школа искусств,,,,,,
118568897,way,43.1154478,132.3523957,Средняя школа № 2,,,,,,
118671441,way,43.1093286,132.3544905,Средняя школа № 1,,,,,,
118794890,way,43.1182314,132.3552881,Средняя школа № 4,,,,,,
119112628,way,43.1123593,132.3460478,Средняя школа № 3,,,,,,
121257059,way,42.8524771,132.9590701,МАОУ «СОШ №7 «Эдельвейс»,,,,,,
121712562,way,42.8046603,132.8664162,"МАОУ ""СОШ № 2"" НГО",,,Нахимовская улица,21А,,
122348980,way,43.418489,132.3288609,,,,Ярославская улица,34,,
122348983,way,43.4203361,132.3257239,,,Суражевка,Ярославская улица,17,,
122358629,way,42.82547,132.8904796,МАОУ Средняя школа №4,,Находка,Школьный переулок,1,,
122957861,way,43.8008635,131.9584678,Школа № 14. Корпус № 2,,Уссурийск,улица Пушкина,77,МБОУ «СОШ № 14»,
123466144,way,43.8365936,131.9398201,Школа № 30,,,,,,
124182015,way,43.7933931,131.9580949,Школа № 25,,,,,,
124305641,way,45.0966165,132.0089972,МБОУ СОШ №7 с.Новокачалинск,,,,,,
124481778,way,47.8820982,134.9585409,Музыкальная школа,,,,,,
124982298,way,42.8442973,132.9186825,Школа №16,,,улица Шевченко,1,,
125436039,way,47.8866333,134.9685331,ХСШ №1,,,,,,
125436040,way,47.8891275,134.9460428,ХСШ №2,,,,,,
126612662,way,48.4540231,135.109028,Начальная школа «Первые шаги»,,,,,,
126856382,way,48.4466653,135.108442,Школа № 62,,,,,,
128281526,way,43.073953,132.3204591,Средняя школа № 8,,Большой Камень,Прибрежная улица,34,,
131298146,way,48.466661,135.0798682,Школа № 10,,,,,,
131451410,way,48.413756,135.1039091,Школа № 87,,,,,,
131725379,way,48.488502,135.0445984,Школа № 6,,,,,,
131729228,way,48.4841139,135.0504081,Школа № 43,,,,,,
131849634,way,48.4640198,135.0947144,Школа № 19,,,,,,
131870079,way,48.4777847,135.0818499,Школа № 32,,,,,,
131870081,way,48.4846215,135.0908281,Школа № 33,,,,,,
132210428,way,48.4060458,135.1122769,Школа №61,,,,,,
132702718,way,48.4688477,135.1802251,Школа № 66,,,,,,
132707931,way,48.4564058,135.1812611,,,,,,,
132707934,way,48.4547266,135.1812819,Школа № 27,,,,,,
132793650,way,48.491951,135.0658747,Гимназия восточных языков № 4,,,,,,
132793651,way,48.4899024,135.0786362,Гимназия № 3,,,,,,
132793652,way,48.4827019,135.0656689,Гимназия № 5,,,,,,
132793655,way,48.398133,135.1034767,Лицей «РИТМ»,,,,,,
132793656,way,48.4887681,135.0706986,Лицей «Ступени»,,,,,,
132793657,way,48.4811296,135.0694046,Лицей инновационных технологий,,,,,,
132793659,way,48.4776689,135.0545906,Математический лицей,,,,,,
132795770,way,48.4611528,135.0918972,Школа № 11,,,,,,
132795771,way,48.4745827,135.0784106,Школа № 12,,,,,,
132795774,way,48.4971692,135.0442455,Школа № 3,,,,,,
132795775,way,48.4419099,135.1364673,Школа № 9,,,,,,
132803796,way,48.4950579,135.0640751,Школа № 15,,,,,,
132803797,way,48.4751684,135.1230054,Школа № 26,,,,,,
132803798,way,48.3989848,135.0969887,Школа № 29,,,,,,
132803799,way,48.4720438,135.072309,Школа № 30,,,,,,
132803800,way,48.4713573,135.0572851,Школа № 35,,,,,,
132803801,way,48.4907952,135.089813,Гимназия № 3 имени М.Ф. Панькова,,,,,,
132803802,way,48.4625115,135.1822842,Школа № 37,,,,,,
132803803,way,48.4883172,135.0821569,Школа № 55,,,,,,
133346316,way,48.3795523,135.0934494,Школа № 39,,,,,,
133346318,way,48.4353404,135.1323047,Школа № 40,,,,,,
133346319,way,48.377342,135.0885152,Школа № 46,,,,,,
133346320,way,48.3881803,135.117614,Школа № 49,,,,,,
133346321,way,48.3883758,135.1193973,Школа № 53,,,,,,
133346322,way,48.4815191,135.0592327,Школа № 57,,,,,,
133346325,way,48.3800725,135.0937432,Специальная школа-интернат № 31,,,,,,
133350421,way,48.4767537,135.0980134,Волочаевский Лицей,,,,,,
133350423,way,48.36524,135.0472808,Школа № 67,,,,,,
133350424,way,48.4406459,135.1079621,Школа № 68,,,,,,
133350426,way,48.3983269,135.110053,Школа № 70,,,,,,
133350427,way,48.4046335,135.1226908,Школа № 72,,,,,,
133365909,way,48.3662229,135.0331891,Школа № 74,,,,,,
133365910,way,48.4812834,135.1206637,Школа № 76,,,,,,
133365914,way,48.3628384,135.0438257,Школа № 83,,,,,,
133369706,way,48.4393541,135.1071031,Начальная школа «Верботон»,,,,,,
133369707,way,48.4672359,135.0671921,Начальная школа «Открытие»,,,,,,
133369709,way,48.3755637,135.0948586,Школа № 7,,,,,,
133439058,way,48.457955,135.113345,Школа «Талант»,,,,,,
133442070,way,48.4820438,135.0672237,Предшкольная подготовка «Алые паруса»,,,,,,
133442071,way,48.4679763,135.0609763,Школа «Алые Паруса»,,,,,,
133442072,way,48.492592,135.1033903,Школа «Ор Авнер»,,,,,,
133478438,way,43.1066364,132.3408561,Средняя школа № 44,,,,,,
134756308,way,48.4065834,135.1245569,Специальная школа-интернат,,,,,,
134756311,way,48.4815304,135.1448888,Школа-интернат № 2,,,,,,
138285467,way,43.1237716,131.9154643,Средняя школа №40,,,,,,
138890692,way,43.1522206,131.9283658,Средняя школа №53,,,,,,
144358438,way,43.1486258,131.9051553,Средняя школа №38,,,,,,
144358873,way,43.1558791,131.9092104,Средняя школа №52,,,,,,
147587607,way,44.2692969,135.0583649,,Приморский край,Кавалерово,улица Арсеньева,102,,
147592080,way,44.2692275,135.046443,КГБУСО Кавелеровский СРЦН Детство,Приморский край,Кавалерово,улица Братьев Форостян,2,,
147614288,way,44.2666834,135.0483888,Вечерняя школа,Приморский край,Кавалерово,улица Гагарина,12,,
147614292,way,44.2678139,135.047942,,Приморский край,Кавалерово,улица Гагарина,16,,
148667504,way,44.2656489,135.0514009,МБОУ СОШ № 3,Приморский край,Кавалерово,улица Калинина,46,,
152095000,way,43.3723209,131.9932854,МОУ СОШ №1,,Артем,улица Рихарда Дрегиса,3А,,
153738960,way,43.3639419,132.21108,Начальная школа средней школы №19,,,,,,
156420170,way,42.808982,132.8679237,"МБОУ ""СОШ № 10",,,,,,
157015262,way,43.7635027,131.9863406,МБОУ СОШ Средняя школа №8,,,,,,
157488774,way,43.1206099,131.8796264,Средняя школа №46,,,,,,
157659223,way,43.1340283,131.9055632,Гимназия №2,,,,,,
158310034,way,43.1145941,131.9112915,Средняя школа №28,,,,,,
158482118,way,43.241253,132.0204789,Детская школа искусств №5,,Владивосток,улица Успенского,112А,,
158634134,way,43.1350347,131.8918304,Средняя школа №26,,,,,,
160317832,way,43.7984392,131.9856871,МБОУ Средняя школа №130,,,,,,
165157194,way,43.3521011,132.1763553,МКУДО Детская школа искусств №1,,,,,,
165478993,way,43.1682985,131.913365,Детская школа искусств №6,,,,,,
165479004,way,43.168965,131.9061724,Средняя школа №7,,,,,,
165482326,way,43.1711077,131.9230563,Средняя школа №60,,,,,,
166558440,way,43.1733072,131.91444,Средняя школа №48,,,,,,
166706139,way,42.7424043,133.1222226,МОУ СОШ №18,,,улица Первостроителей,10,,
166809646,way,43.0923124,131.9681721,Средняя школа №33,,,,,,
166819476,way,43.1273282,131.9164907,Средняя школа №56,,,,,,
167167681,way,43.1188838,131.9287255,Средняя школа №73,,,,,,
167412448,way,43.3461204,132.1236364,МБОУ СОШ №31,,,,,,
167448048,way,43.1799399,131.9128879,Средняя школа №58,,,,,,
167933823,way,43.1030871,131.8997126,Детская художественная школа №3,,,,,,
167933881,way,43.0980943,131.8915175,Средняя школа №32,,,,,,
167933882,way,43.0980598,131.9076399,Средняя школа №74,,,,,,
168693223,way,43.1293112,131.8965728,Средняя школа №17,,,,,,
169059303,way,43.0951236,131.8614654,Средняя школа №6,,,,,,
169101483,way,43.1163951,131.8891717,Гимназия №1,,,,,,
169101491,way,43.1008931,131.9454337,Лицей №41,,,,,,
169101492,way,43.1504965,131.9128946,Начальная школа №10,,,,,,
169101495,way,43.216355,131.9552026,Средняя школа №16,,,,,,
169101496,way,43.0442737,131.8233291,Средняя школа №20,,,,,,
169101499,way,43.0856822,131.9006556,Средняя школа №35,,,,,,
169101501,way,43.0873872,131.8541906,Средняя школа №39,,,,,,
169101502,way,43.1061916,131.8733966,Средняя школа №42,,,,,,
169101504,way,43.2422344,132.0241115,Средняя школа №44,,,,,,
169101507,way,43.2567526,132.0353546,Лицей №3,,,,,,
169101509,way,43.1230799,132.0190106,Средняя школа №8,,,,,,
169101510,way,43.1168198,131.9034984,Средняя школа №9,,,,,,
169192326,way,43.1129351,131.926919,"Лицей ""Технический""",,,,,,
169192328,way,43.0986584,131.9302148,Средняя школа №45,,,,,,
169192332,way,43.0945495,131.9784518,Средняя школа №54,,,,,,
169192333,way,43.1381898,131.9618861,Средняя школа №55,,,,,,
169192338,way,43.12463,131.9562502,Средняя школа №64,,,,,,
169192339,way,43.1239084,131.9472258,Средняя школа №66,,,,,,
169192341,way,43.1611332,131.928056,Средняя школа №68,,,,,,
169192343,way,43.299873,132.083608,Средняя школа №70,,,,,,
169192344,way,43.3098703,132.0756862,Средняя школа №71,,,,,,
169192345,way,43.2110616,132.1489524,Средняя школа №72,,,,,,
169192346,way,43.1236439,131.8971484,Средняя школа №75,,,,,,
169210293,way,43.3463932,132.0694713,Средняя школа №20,,,,,,
169210297,way,43.2555117,132.045666,Школа-интернат,,,,,,
174749069,way,42.6064889,131.1731084,,,,Лесная улица,2,,
178314845,way,45.4652804,133.3921982,Школа №3,,,Пушкинская улица,10,,
178432107,way,43.3673673,132.3168531,Школа №7,,,,,,
180909739,way,48.4954242,135.0751565,Гимназия № 6,,,,,,
196279013,way,45.9426022,133.8108979,МБОУ СОШ №3,,,,,,
196279014,way,45.9459724,133.8152781,МОУ СОШ №4,,,,,,
203783289,way,45.4886018,133.4335085,Средняя школа №7,,,улица Челюскина,10,,
208805246,way,45.3074225,133.5091493,,,Глазовка,Центральная улица,30,,
216559667,way,43.7938693,131.9451558,3-й интернат,,Уссурийск,улица Горького,32,,
216559670,way,43.7934136,131.9446671,МБОУ СОШ №11,,Уссурийск,улица Горького,20,,
217392899,way,43.7907144,131.9422298,МБОУ СОШ Средняя школа №22,,,,,,
221913258,way,47.5432024,134.7588971,,,,Театральная улица,6,,
221913275,way,47.5400372,134.750423,Школа №20,,Вяземский,улица Котляра,37,,
222235240,way,48.3227663,134.8802789,МБОУ СОШ С. Осиновая Речка,,,,,,
225415742,way,43.3822607,133.9012647,МБОУ средняя СШ №1,,,Некрасовская улица,9,,
225419616,way,43.3816425,133.9006284,МБОУ Детская школа искусств,,,Некрасовская улица,7,,
227913676,way,45.5251637,131.9930945,,,,,,,
228760643,way,45.4652907,133.3971317,Средняя школа №1,,,Калининская улица,27,,
231529452,way,48.4580901,135.1121821,Гимназия № 1,,,,,,
237229072,way,45.4521578,133.381645,МОБУ СОШ № 2,,,улица Дзержинского,26,,
239186196,way,43.6260142,132.2290555,МБОУ СОШ с. Каменушка,,,,,,
239725434,way,43.0205247,131.8634184,Средняя школа №15,,Русский,Верхненабережная улица,15,,
240250152,way,48.3663257,135.1166636,МБОУ СОШ село Ильинка,,,,,,
242795631,way,47.362567,134.262287,,,,,,,
243363816,way,45.9811416,133.6623393,,,,,,,
243363818,way,45.9835693,133.6624988,,,,,,,
244496046,way,43.3753097,132.2363981,МБОУ СОШ №18,,,,,,
244656383,way,47.5279378,134.7565709,,,,,,,
245276442,way,48.4731921,135.3765447,,,,,,,
246407277,way,43.3447044,132.1462064,КГОБУ Коррекционная школа - интернат,,,,,,
249317585,way,48.4473216,135.2172339,,,,,,,
249319710,way,48.4051862,135.1926876,,,,,,,
249356053,way,48.1039384,135.1187503,,,,,,,
258875557,way,42.9034898,133.9026217,МБОУ Преображенская СОШ № 11,,,Морская улица,4,,
259443329,way,45.8961781,134.853357,,,Богуславец,Советская улица,20,,
259531825,way,43.8500525,131.8633391,Школа №1,,Новоникольск,Советская улица,79,,
259531826,way,43.8497552,131.8637822,класс труда,,Новоникольск,Советская улица,79 с2,Школа №1,
260621829,way,43.897299,131.3183317,,,,Школьная улица,14,,
260679755,way,43.803336,131.9853346,Муниципальное бюджетное общеобразовательное учреждение г.Уссурийска - гимназия №133,,,,,,
263719605,way,46.4488513,134.3036536,МОУ СОШ №2,,,,,,
273063408,way,48.1881162,135.0602525,,,,,,,
273063409,way,48.1881166,135.0610588,,,,,,,
274498123,way,48.3572652,134.2965659,抚远市第三小学,,,,,,
274498682,way,48.3553772,134.2923351,抚远市第三中学,,,,,,
274511405,way,48.359177,134.2844281,抚远市第一中学,,,,,,
274516356,way,48.3659163,134.2873736,第一小学,,,,,,
274519082,way,48.3584367,134.2867519,抚远市第二小学,,,,,,
286871913,way,48.0860986,135.8473917,МБОУ СОШ п.Дурмин,,,Комсомольская улица,12,,
288036425,way,48.3562557,135.0011799,,,,,,,
288731085,way,48.352439,135.2313266,Школа № 1,,,,,,
288731086,way,48.355933,135.2316856,Школа № 2,,,,,,
291081476,way,48.2413874,132.4473165,,,,,,,
303339484,way,48.1929544,136.1412136,"МОУ ""Средняя общеобразовательная школа""",,,,,,
304044529,way,46.7930917,134.0044507,,,,,,,
304044530,way,46.7907541,134.0047049,,,,,,,
304044531,way,46.8001564,134.0031383,,,,,,,
304044532,way,46.788416,133.9913025,,,,,,,
305400742,way,44.5758117,132.8250128,Школа №15,,,,,,
309687812,way,45.2422154,133.5055334,Курортовская средняя школа,,,,,,
311365498,way,43.0923641,131.9504631,Владивостокская специальная (коррекционная) общеобразовательная школа-интернат №2,,,,,,
316172214,way,43.1117098,133.1120368,Средняя Школа №6,,,,,,
316802245,way,44.5244573,132.7024887,Школа №4,,,,,,
317111692,way,43.0882801,133.2083609,Николаевская специальная коррекционная общеобразовательная школа-интернат,,,улица Суханова,24,,
332094593,way,47.9767773,131.9407734,Биджанская средняя школа,,,,,,
335577966,way,44.2566345,135.0584856,Школа № 2,,,,,,
337155283,way,44.5648899,132.7692449,Школа 3,,,,,,
341497617,way,44.2179603,135.5515583,Средняя школа,,,Школьная улица,1,,
345808737,way,48.2862657,132.5335642,,,,Школьная улица,3,,
347664305,way,46.7926389,134.2437324,,,,,,,
347696212,way,46.7347014,134.3291579,,,,,,,
347699507,way,47.0973767,134.2192373,,,,Уссурийская улица,12,,
347708679,way,47.1312159,134.3715171,,,,,,,
364711355,way,43.8127198,131.9827852,"Школа-интернат № 29 ОАО ""РЖД""",,,,,,
364715772,way,43.7671829,131.9787971,МБОУ СОШ №28,,,,,,
372459867,way,43.8049549,131.9955938,МБОУ Средняя школа №131,,,,,,
373719422,way,43.8105992,131.9893242,МБОУ ООШ №27,,,,,,
388242474,way,48.4934218,133.1008522,Средняя школа,,Найфельд,Школьная улица,11,,
388264136,way,48.4176164,132.8012346,,,,,,,
388719115,way,42.2585457,130.2879628,,,,,,,
389998303,way,45.2953317,130.9281312,鸡西市第一中学,,,,,,
394518018,way,48.0649873,136.3881402,МБОУ СОШ П. Золотой,,,Школьная улица,10,,
403985461,way,44.2697891,135.0587176,Школа № 1,,,,,,
405955508,way,44.2678865,135.0472584,КГОБУ школа-интернат п. Кавалерово,,Кавалерово,улица Гагарина,16,,
415405691,way,48.4768116,135.2636811,,,,,,,
421579770,way,44.7588641,136.2877074,МКОУ СОШ п. Пластун,,,,,,
421917343,way,44.5942415,132.8121121,Школа №4,,Спасск-Дальний,Ленинская улица,47,,
421918829,way,44.5900343,132.808474,Средняя общеобразовательная школа №5,,,Советская улица,110,,
447947691,way,42.2391866,130.3112261,안주고급중학교,,,,,,
447947958,way,42.2481614,130.306172,라진소학교,,,,,,
449432139,way,46.8572876,134.4524809,,,,,,,
459720844,way,45.4525537,133.3821162,МОБУ ДО ДЮСШ,,,улица Дзержинского,22А,,
460691345,way,42.8625412,132.6888119,,,Находка,Комсомольская улица,2А,,
460881440,way,43.1524677,133.1316708,,,,улица Мирошниченко,14,,
462223839,way,44.2919287,133.4244774,Средняя школа №2 с. Варфоломеевка,,,,,,
462459461,way,44.2969389,133.454856,Средняя школа №1 с. Варфоломеевка,,,,,,
462482638,way,43.0560429,131.8558007,Средняя общеобразовательная школа №5,,,,29,,
462670560,way,45.1964926,133.5125577,МБОУ ООШ с. Уссурка,,,,,,
463193164,way,44.4423671,135.7475142,Средняя школа №12,,Сержантово,Советская улица,8,,
465315748,way,42.9703171,132.4074108,Гимназия № 259,,,,,,
466285464,way,45.0928618,133.5038793,МБОУ ООШ №2,,,,,,
466570106,way,45.0888791,133.5072645,МБОУ СОШ №1,,,,,,
471682764,way,44.3620052,131.4406257,Барано-Оренбургская Средняя Школа,,,,,,
473469217,way,44.0766625,131.4008643,МОБУ Фадеевская ООШ,,,,,,
473685598,way,46.2530712,134.0616548,,,,,,,
474522250,way,46.1892407,133.9432178,,,,,,,
474733993,way,44.9651183,133.3387773,МБОУ ООШ с.Руновка,,,,,,
474947787,way,44.9494133,133.1654926,"МБОУ ""СОШ № 18"" С. Новорусановка",,,,,,
476022792,way,45.0043405,133.2899892,,,Комаровка,Школьная улица,9,,
476198948,way,44.9215455,133.072409,МБОУ Зеленодольская СОШ,,,,,,
477413256,way,45.1305691,133.2628932,"МБОУ ""СОШ С.Павло-Федоровка""",,,,,,
477604378,way,45.9696737,133.767485,,,,,,,
477805380,way,44.8359216,133.0436606,Начальная школа - детский сад № 24,,,,,,
477805391,way,44.8340221,133.0437157,Школа № 7,,,,,,
478183639,way,44.8156418,133.0755017,,,,,,,
478601849,way,47.9342813,132.6232773,Начальная Общеобразовательная Школа,Еврейская автономная область,Ленинское,улица Ленина,11,,
478789359,way,43.1131302,131.8743477,Средняя школа №13,,,,,,
482689404,way,47.9451254,132.6139298,"ОГОБУ ""Специальная(коррекционная) школа-интернат с.Ленинское""",Еврейская автономная область,Ленинское,Школьная улица,10,,
482689422,way,47.9449474,132.6179925,"ОГОБУ ""Специальная(коррекционная) школа-интернат с.Ленинское""",Еврейская автономная область,Ленинское,Школьная улица,7,,
486473212,way,43.1664057,131.9601244,Средняя школа №83,,,,,,
488168539,way,43.1592082,131.9150302,Средняя школа №23,,,,,,
488388508,way,43.1670538,131.9254252,Средняя школа №61,,,,,,
491284048,way,43.1486469,131.9154154,Средняя школа №51,,,,,,
493598898,way,43.0901966,131.9182665,Средняя школа №81,,,,,,
494338129,way,43.1010874,131.9191646,Средняя школа №62,,,,,,
496598406,way,42.8442747,132.9185841,"МБОУ СОШ № 7 ""Эдельвейс""",,,,,,
496787796,way,42.8487123,132.880088,МБОУ СОШ № 8,,,,,,
500297632,way,44.8808836,133.1474948,МБОУ ООШ № 6,,,,,,
500310906,way,44.6334977,132.9847209,МБОУ СОШ №2,,,,,,
500310907,way,44.6335181,132.9791111,МБОУ СОШ №2 - здание дошкольных групп,,,,,,
500330581,way,44.4531973,132.8612521,"МБОУ СОШ №4, Вишневский филиал - дошкольные группы",,,,,,
500544562,way,48.4653766,135.4535079,Школа №1,,,,,,
500559673,way,44.5920754,132.8093535,Гимназия №1,,,,,,
500589286,way,44.6132767,132.80236,МБОУ открытая общеобразовательная школа,,,,,,
500628262,way,44.5946503,132.8238708,Средняя школа №12,,,,,,
500628824,way,48.3858546,135.3150858,,,,,,,
500870367,way,44.4061487,131.367426,"МБОУ ""ПСОШ №2 ПМО""",,,,,,
500893194,way,44.4361497,132.0682061,Средняя школа №3,,,,,,
501510402,way,44.2041102,131.7255152,МОБУ Липовецкая СОШ № 2,,,,,,
501510458,way,44.2025359,131.7203004,МОБУ Липовецкая СОШ № 1,,,,,,
501780041,way,42.256709,130.2960087,,,,,,,
502574023,way,43.4587269,132.288062,МБОУ Средняя школа №4,,,,,,
502574058,way,43.4617691,132.2846497,"Детская спортивная школа ""Феникс""",,,,,,
502606185,way,43.4700206,132.4528662,МБОУ СОШ № 13,,,,,,
502787960,way,43.3898948,132.3624358,МБОУ СОШ № 15,,,,,,
503495780,way,43.3218471,131.8660799,МБОУ Средняя общеобразовательная школа №4,,,,,,
503661019,way,43.3724153,131.9957156,МБОУ СОШ №1,,,,,,
503913032,way,43.3566357,132.2018843,МБОУ СОШ №19,,,,,,
503913115,way,43.3681028,132.2219156,МБОУ Средняя школа №17,,,,,,
504124584,way,43.3479162,132.1602616,Средняя школа №33,,,,,,
504124595,way,43.3453451,132.1567706,Гимназия №1,,,,,,
504124623,way,43.3544247,132.1770272,"Средняя общеобразовательная школа №11, г. Артем",,,,,,
504964455,way,43.2503946,132.0309827,"Лицей-интернат ""Буревестник""",,,,,,
504979455,way,45.8780055,133.9028315,МОБУ СОШ с. Веденка,,,,,,
508550688,way,44.2675462,135.1189392,МБОУ СОШ №5,,,,,,
508841401,way,44.3306514,135.0640992,МБОУ СОШ пгт Хрустальный,,Хрустальный,Комсомольская улица,98,,
508969020,way,42.459865,130.5111746,,,,,,,
509298813,way,42.2515889,130.3162883,,,,,,,
515995735,way,48.3000482,134.8236725,МБДОУ С. Бычиха,,Бычиха,Уссурийская улица,7,,
516508734,way,48.3032538,134.8246696,,,,,,,
520861747,way,47.7198838,132.9616821,青龙山学校,,,,,,
520861786,way,47.5474202,133.1002034,前进中学,,,,,,
520904327,way,47.7192459,133.1947164,浓江农场学校,,,,,,
520958894,way,46.9794106,132.8613514,大兴学校,,,,,,
520962927,way,47.3321916,133.4357853,红卫农场学校,,,,,,
521039338,way,47.2659645,132.6181216,建三江第二高级中学,,,,,,
521075154,way,47.246796,132.6118806,建三江第一中学,,,,,,
521075246,way,47.2494684,132.6354268,,,,,,,
521075302,way,47.2496145,132.6121259,七星农场第二中学,,,,,,
521343265,way,47.3263841,132.4955651,富锦市二龙山中学,,,,,,
521631588,way,44.4239835,130.8688,,,,,,,
521631619,way,44.4187795,130.8766106,,,,,,,
521661071,way,44.4249211,130.874025,绥阳中学,,,,,,
521722417,way,44.3398107,132.5447874,Школа №3,,,,,,
524310182,way,44.2859062,132.259253,Средняя школа с. Лучки,,,,,,
524551230,way,42.8944724,133.0770875,Средняя школа,,,,,,
524811120,way,42.925491,133.052393,МКОУ СОШ №10,,,,,,
525468946,way,44.7438694,132.0439361,,,Камень-Рыболов,улица Некрасова,4,,
528042360,way,44.2093416,132.4372187,,,,,,,
528661005,way,44.2069564,132.4463076,Школа №5,,,,,,
539542207,way,43.3480495,132.157679,Средняя школа №3,,,,,,
540114811,way,43.3289992,132.1078171,МБОУ СОШ № 35,,,,,,
543618366,way,43.4537727,131.7713768,МКОУ ООШ № 8 с.Нежино,,,,,,
543620748,way,43.1267079,131.9192003,Гимназия ДВФУ,,,,,,
546274508,way,44.7373784,132.0435734,МБОУ СОШ №1,,,,,,
546713897,way,44.7438991,132.0438616,Центр детского творчетва,,,,,,
548479556,way,44.4003807,132.6502186,МБОУ СОШ №10,,,,,,
548649222,way,45.2849282,130.9774724,培新小学,,,,,,
548661302,way,45.3468678,130.8290722,滴道学校,,,,,,
548661350,way,45.3011615,130.9673031,和平小学,,,,,,
548661351,way,45.2961756,130.9671665,东风小学,,,,,,
548780840,way,45.27656,130.9595516,跃进小学,,,,,,
549243391,way,45.2996375,130.952871,园丁小学,,,,,,
550027629,way,45.2942975,130.9179287,文成高中,,,,,,
551565405,way,44.9075866,130.5190201,穆棱三中,,,,,,
551565535,way,44.9218774,130.5271532,,,,,,,
551850422,way,45.3112489,130.9441099,铁中,,,,,,
551856396,way,45.2064989,130.9031251,四中,,,,,,
552007921,way,45.2237178,130.9652114,恒兴小学,,,,,,
553160345,way,43.3461313,133.3542127,Средняя школа №1,,,,,,
553211796,way,45.2478521,131.1297554,余山高中,,,,,,
553380733,way,45.3368252,131.0147912,城子河二中,,,,,,
553437278,way,45.2592447,131.1267132,鸡东二中,,,,,,
553441911,way,45.2656571,131.1224606,鸡东镇中心学校,,,,,,
553687233,way,46.3362547,132.1955626,宝清三中,,,,,,
553687300,way,46.3179092,132.1751799,宝清一中,,,,,,
553687315,way,46.3134708,132.2010518,宝清四中,,,,,,
553690742,way,46.3328866,132.2151996,宝清二中,,,,,,
553693829,way,43.0189012,133.109219,МКОУ ООШ с. Новая Сила,,,,,,
554170210,way,45.2885146,130.9932346,电工小学,,,,,,
554601504,way,43.7397182,130.8638759,老黑山小学,,,,,,
554786299,way,44.43122,133.5644013,Покровский филиал МБОУ СОШ,,,,,,
555629267,way,44.2499375,133.8549561,МКОУ СОШ №7,,,,,,
556615123,way,43.792525,133.8424532,МКОУ СОШ №11,,,,,,
556877639,way,44.5697931,132.7872714,Средняя школа №14,,,,,,
557151595,way,44.0403055,133.8875538,МКОУ СОШ №3,,,,,,
557538104,way,44.2000306,133.8011293,,,Цветковка,Советская улица,12,,
557538106,way,44.2002103,133.8008393,МКОУ СОШ №10,,,,,,
558948144,way,43.2923033,134.2351386,МБОУ Сокольчинская СОШ №3,,,,,,
558978217,way,43.2252883,134.2776932,Чернорученская ООШ № 4,,,,,,
558981427,way,43.4076269,134.7512612,"МКОУ ""СОШ С.Маргаритово""",,,,,,
558981430,way,43.4078054,134.7515361,,,,Школьная улица,11,,
559667817,way,44.4575638,136.011376,Средняя школа №7,,,,,,
560619853,way,44.6888107,130.5377345,马桥河中心小学,,,,,,
560868620,way,44.6742508,130.442107,下城子第二小学,,,,,,
560873245,way,44.7462708,130.4462166,新民小学,,,,,,
560890885,way,44.9139185,130.5318442,实验小学,,,,,,
560890889,way,44.9182457,130.5269143,朝鲜族学校,,,,,,
560969431,way,45.2488396,130.1530709,龙爪中学,,,,,,
561127194,way,45.0501885,133.4752656,"МБОУ ""ООШ с. Увальное""",,,,,,
563626744,way,45.7552618,130.5594723,勃利一中,,,,,,
566872976,way,45.7446912,130.5849175,勃利县东城小学,,,,,,
570470913,way,47.8488068,134.9569317,Школа имени А.В.Суворова п. Новостройка,,,,,,
583883271,way,45.8242925,130.9153283,市第二中学,,,,,,
585831223,way,45.3020154,130.9622324,九中,,,,,,
587216129,way,45.8153088,130.914589,北山二中,,,,,,
588511732,way,43.2979143,132.0643944,Средняя школа № 79,,,,,,
589638497,way,45.807109,130.9367939,第三中学,,,,,,
590310484,way,48.34694,134.9560405,,,,,,,
598222966,way,45.3003793,130.9852741,鸡西市特教中心,,,,,,
598222967,way,45.3009947,130.9859303,朝中-계서조선족중학교,,,,,,
598274058,way,45.2991284,130.9545607,党校,,,,,,
600388114,way,45.8660441,131.0349434,新一中,,,,,,
600484948,way,43.4204938,132.3254266,Средняя общеобразовательная школа №5,,,,,,
609836412,way,45.3528612,130.2832942,,,,,,,
610066787,way,45.8026506,130.9432533,新建小学,,,,,,
610664455,way,43.2257861,131.9819875,"Европейская прогимназия, ДВЦНО",,,,,,
612806470,way,45.3079207,130.9386675,铁路小学,,,,,,
616370980,way,45.228525,133.5028308,"МБОУ ДО ДЮЦ ""Горные ключи""",,,,,,
624154039,way,45.2162697,130.9057758,恒山小学,,,,,,
624154040,way,45.2140312,130.903726,恒山中学,,,,,,
626035290,way,47.3711262,135.6230907,МБОУ ООШ П. Долми,,,Центральная улица,66А,,
627087892,way,45.2274442,130.9668408,博才中学,,,,,,
631159433,way,45.3467672,130.9992633,晨兴中学,,,,,,
631161814,way,45.3510804,131.0781371,,,,,,,
631423429,way,45.3051514,131.1795765,,,,,,,
636163542,way,45.2456782,131.1479244,鸡东一中,,,,,,
636163544,way,45.2528385,131.1503204,四中,,,,,,
636163546,way,45.252407,131.1520408,四小,,,,,,
636163549,way,45.2533578,131.1485181,朝中,,,,,,
645958191,way,47.327619,130.2714469,鹤岗二中,,,,,,
645958194,way,47.3295809,130.2745061,东方红小学,,,,,,
646134325,way,47.3401322,130.2855474,红军小学,,,,,红军小学,
646138711,way,47.3406435,130.2707163,,,,,,,
648168011,way,47.3171082,130.2623392,鹤岗市第一中学,,,,,,
648168012,way,47.3173565,130.2650272,四中,,,,,,
653524297,way,45.3153842,130.9235226,,,,,,,
678976697,way,45.7763575,131.0538059,茄子河中学,,,,,,
682582351,way,45.773046,131.0092163,逸夫中学,,,,,,
683059946,way,45.7729026,130.9954192,五小,,,,,,
683059949,way,45.7732175,131.0217397,六小,,,,,,
683059958,way,45.7626599,130.9962683,实验高中,,,,,,
697203531,way,43.2102295,132.5970196,Средняя школа №26,,,,,,
699832617,way,42.6566579,130.8058925,МКОУ Средняя школа п. Посьет,,,,,,
701206730,way,44.0896079,132.0294991,МБОУ СОШ с. Абрамовка,,,,,,
703615404,way,48.2144101,133.8888152,,,,,,,
705649067,way,45.0931842,130.6955697,梨树六中,,,,,,
708605089,way,44.3899069,135.7756632,,,Мономахово,Школьная улица,17,,
710386939,way,45.7723617,130.9954217,五小,,,,,,
710386941,way,45.7662465,130.9932253,四中,,,,,,
713843009,way,45.2829373,130.2655183,林口县第三小学,,,,,,
713843010,way,45.2805999,130.2571813,林口2中,,,,,,
714215916,way,45.2753732,130.271913,实验学校,,,,,,
723062142,way,45.3011994,130.9141897,鸡西市第十九中学,,,,,,
727360052,way,46.3259731,132.1798706,宝清县第二高中,,,,,,
727360053,way,46.3251458,132.1772126,宝清四小,,,,,,
727360070,way,46.3361888,132.1894716,宝清县高级中学,,,,,,
732584912,way,45.2649414,131.1244401,鸡东县职业技术学校,,,,,,
732591943,way,45.2444857,131.1473522,红少年小学,,,,,,
732607565,way,45.2560397,131.2129071,朝鲜族学校-계림향조선족학교,,,,,,
732607566,way,45.2518523,131.2169528,,,,,,,
733467217,way,45.3445767,131.4649179,永安中学,,,,,,
733467218,way,45.3430652,131.4664872,中心校,,,,,,
737467164,way,46.6778611,131.149363,双鸭山市第一中学,,,,,,
737467170,way,46.6796317,131.1307142,双鸭山市第三十一中学,,,,,,
747164786,way,45.7818588,131.0725868,双鹤小学,,,,,,
747164787,way,45.7808973,131.0779802,第六中学,,,,,,
748961086,way,45.7708356,131.0068528,七小,,,,,,
809051782,way,48.1356703,135.4138856,МБОУ СОШ п. Сита,,,,,,
809373971,way,47.6687988,136.1843756,МБОО СОШ С. Гвасюги,,,улица Джанси Кимонко,3,,
818303579,way,45.8551008,131.0522045,七台河市第四小学,,,,,,
818642300,way,45.8602018,131.0504438,十六中,,,,,,
818642336,way,45.8671208,131.0481216,七台河市特殊教育学校,,,,,,
818771491,way,45.7970737,130.956502,北岸小学,,,,,,
820964281,way,45.8081524,130.9474003,第七中学,,,,,,
821329524,way,45.8212415,130.9211158,市第三小学,,,,,,
821329525,way,45.8242619,130.9218356,欣源中学,,,,,,
822074705,way,47.4214676,130.5373272,宝泉岭局直中学,,,,,,
822074715,way,47.4311613,130.5503627,宝泉岭高级中学,,,,,,
822074716,way,47.4288097,130.5500837,宝泉岭小学,,,,,,
822074719,way,47.4353488,130.5645569,宝泉岭局直小学,,,,,,
823303227,way,43.2808652,133.2262546,Средняя школа №22,,,,,,
832956053,way,42.862848,132.688756,Средняя общеобразовательная школа № 27,,,,,,
842067458,way,42.8546305,130.3620593,珲春市第八小学校 훈춘시제8소학교,,延边朝鲜族自治州,河南西街,1292,珲春市教育局,
842474601,way,42.868443,130.3548282,珲春红军小学,,延边朝鲜族自治州,新安路,994,全国红军小学建设工程理事会,
842474615,way,42.8654609,130.3461431,珲春市第一高级中学 훈춘시제1고급중학교,,延边朝鲜族自治州,光明胡同,187,珲春市教育局,
845602216,way,48.0927191,135.6870813,МБОУ СОШ п.Обор им. Е.А. Дикопольцева,,,,,,
845681466,way,45.0335783,131.2960144,前卫村中心学校,,,,,,
846895135,way,45.1544435,130.7574085,平岗学校,,,,,,
853076978,way,45.1280229,133.309328,"МБОУ ""СОШ с. Авдеевка""",,,,,,
854096957,way,44.8443653,133.9561305,"МБОУ ""ООШ п. Горный",,,Приисковая улица,11,,
856223961,way,46.680981,131.1499758,双鸭山市实验学校,,,,,,
857032232,way,44.7970876,133.7355211,,,,Школьная улица,8,,
858398835,way,45.0755951,133.6348991,МБОУ ООШ с. Преображенка,,,,,,
858900710,way,45.2616907,130.7915711,鸡西市第十六中学,,,,,,
859959653,way,45.3326526,131.1180136,杏花学校,,,,,,
862526088,way,45.3035185,130.9000928,鸡西市第二十七中学,,,,,,
862556625,way,45.2653902,130.9437012,鸡西市第二十四中学,,,,,,
864053220,way,45.8968566,134.9414621,МКОУ СОШ № 12 с. Вострецово,,,,,,
864915763,way,46.4456474,135.8318691,"МКОУ ""СОШ № 31""",,,,,,
865329871,way,46.0664722,135.3888599,"МКОУ ""СОШ № 14"" С.Глубинное",,,,,,
867196336,way,46.1117422,134.7079718,"МКОУ ""СОШ № 20"" С.Измайлиха",,,,,,
867620281,way,45.967421,134.3344259,Школа № 17,,,,,,
868546166,way,45.8828154,134.5192141,"МКОУ ""ООШ № 23"" С.Новокрещенка",,,,,,
870648423,way,43.1665244,133.7608798,МБОУ Беневская СОШ №7,,,,,,
870977401,way,43.1215256,134.2999629,МБОУ Валентиновская СОШ № 5,,,,,,
878852129,way,45.3369039,131.0179253,城子河小学,,,,,,
882659078,way,43.9089283,132.2781251,МБОУ ООШ С. Даниловка,,,,,,
885009030,way,44.0779225,131.8440766,МКОУ НОШ С.Степное,,,,,,
885408909,way,43.9762346,132.5621013,МБОУ СОШ с. Ширяевка,,,,,,
887703776,way,43.4763394,131.9228364,МБОУ СОШ № 9 с.Кипарисово,,,,,,
889094543,way,45.2069314,130.9271405,小恒山小学,,,,,,
891419759,way,46.3165146,132.1931816,宝清实验学校,,,,,,
891425750,way,46.3195707,132.2066132,,,,,,,
897425071,way,43.9550174,135.4522238,"МКОУ ""СОШ с. Весёлый Яр",,,,,,
897657726,way,45.7172125,133.6715509,Средняя школа с. Невское,,,,,,
900258027,way,43.3500664,134.790956,"МКОУ ""СОШ П.Моряк-Рыболов""",,,,,,
900637556,way,43.8671308,135.2452773,"МКОУ ""СОШ с.Серафимовка""",,,,,,
901400809,way,45.4066454,134.3053269,МОБУ СОШ с. Малиново,,,,,,
903668771,way,44.1616167,131.6825473,МОБУ Владимировская СОШ,,,,,,
906091533,way,44.094265,131.5818693,МОБУ Пореченская ООШ,,,,,,
913061689,way,43.9377437,131.5426959,МОБУ Синельниковская СОШ,,,,,,
915132408,way,43.767475,135.1760139,МКОУ СОШ с. Пермское,,,,,,
918130666,way,42.9354292,133.1136748,МКОУ ООШ С.Золотая Долина,,,,,,
918527742,way,46.6743058,131.1669797,双语学校,,,,,,
918530403,way,46.6774197,131.1386539,小学,,,,,,
918535333,way,43.4783157,133.3653404,МКОУ СОШ С. Молчановка,,,,,,
919937794,way,46.6687119,131.1634279,民生小学,,,,,,
921654097,way,43.0551721,133.1757076,МКОУ СОШ с. Новицкое,,,,,,
926527384,way,44.4872447,131.5755808,"МКОУ ""Богуславская СОШ""",,,,,,
929127743,way,45.5019058,130.9611688,兴农中学,,,,,,
930047185,way,44.3378137,131.6552907,"МБОУ ""Сергеевская СОШ ПМО""",,,,,,
930493878,way,44.3011071,131.3501559,"МКОУ ""Софье-Алексеевская ООШ Пограничного МР""",,,,,,
931287992,way,46.5400312,135.3650473,МОБУ СОШ № 15 Пожарского Муниципального района,,,,,,
936543387,way,46.3381341,134.3881492,МОБУ СОШ № 5 Пожарского Муниципального района,,,,,,
936552483,way,45.2038412,130.480664,英林学校,,,,,,
938690886,way,47.6465707,132.5009591,同江市职业技术中学,,,,,,
938690888,way,47.6488849,132.519578,同江市第二小学,,,,,,
938690890,way,47.6472321,132.5061276,同江市第三中学,,,,,,
938699662,way,47.6418633,132.5094107,同江市第一中学,,,,,,
938699664,way,47.6567649,132.5000149,同江市第二中学,,,,,,
938699665,way,47.6586655,132.496933,同江市第一小学,,,,,,
938699668,way,47.6602751,132.5302247,同江市第三小学,,,,,,
938699670,way,47.6468707,132.4913245,同江市第五小学,,,,,,
939334976,way,47.6415922,132.5025013,同江市第四小学,,,,,,
940253038,way,45.3434414,131.1265717,哈达中心学校,,,,,,
942026609,way,47.795341,132.1952198,,,,Пограничная улица,25,,
942056889,way,45.7802913,131.0309773,保中学校,,,,,,
942087560,way,46.675706,135.4394156,,,,,,,
942519360,way,45.2927698,130.7005824,兰岭学校,,,,,,
942519365,way,45.0942607,130.6946226,梨树小学,,,,,,
942519367,way,45.1927765,130.8868077,大恒山中心小学,,,,,,
942780747,way,46.5356041,134.2711151,МБОУ Федосеевская СОШ им.В.М.Верёхина,,,,,,
943078261,way,44.9301969,130.519093,穆棱市第一中学,,牡丹江市,和平大街,652号,,
944531849,way,44.7736975,132.6928899,МОУ СОШ № 5 С.Новосельское,,,,,,
947068533,way,44.6896445,132.7457187,"МБОУ ""СОШ С.Степное""",,,,,,
958542413,way,45.348754,131.0020301,树英小学,,,,,,
960748701,way,45.256807,131.1272335,红星小学,,,,,,
960751102,way,45.2551373,131.1256355,鸡东三中,,,,,,
961523204,way,44.6616689,132.0854969,Средняя школа № 13 села Владимиро-Петровка,,,,,,
962517619,way,44.9860453,131.7841173,МБОУ СОШ № 9 с. Комиссарово,,,,,,
963555262,way,45.8112637,130.9337121,育红小学,,,,,,
963826875,way,44.571981,131.9420859,МБОУ СОШ №8 с.Мельгуновка,,,,,,
964187635,way,44.6565964,131.8550321,МБОУ СОШ №6 с.Новоселище,,,,,,
964440910,way,46.57173,131.3982511,,,,,,,
964440911,way,46.5700887,131.4005792,,,,,,,
964443003,way,46.5664608,131.4038866,,,,,,,
964493332,way,44.9187148,132.0106338,МБОУ СОШ №4,,,,,,
964857260,way,45.1366932,131.8538668,МБОУ СОШ № 12 С. Первомайское,,,,,,
965766682,way,44.8350132,132.0287675,МБОУ СОШ № 10 С. Троицкое,,,,,,
966123360,way,42.6411692,131.1292243,МКОУ ООШ с. Андреевка,,,,,,
967463675,way,43.1841307,131.5005487,МКОУ СОШ № 2 с. Барабаш,,,,,,
970280942,way,43.3011416,131.6044615,МОУ СОШ С.Занадворовка,,,,,,
970512352,way,44.6205636,132.7995459,,,Спасское,Хрещатинская улица,52,,
990236403,way,44.3226727,132.0901251,МКОУ СОШ с. Благодатное,,,,,,
991859551,way,44.3819347,132.2781318,МОУ Школа С. Петровичи,,,,,,
991864558,way,44.3605741,132.1682042,МОУ Начальная Школа С. Новобельмановка,,,,,,
1001325954,way,48.4241849,135.4815665,,,,,,,
1005776967,way,44.4057501,132.530415,МБОУ СОШ №16,,,,,,
1014206431,way,44.1946159,132.4948946,КГОБУ Монастырищенская КШИ,,,,,,
1018281091,way,42.3295987,130.3441215,,,,,,,
1018510716,way,42.2154877,130.2475581,,,,,,,
1021841785,way,44.4591286,132.5940418,Школа №12,,,,,,
1022157243,way,44.2597765,132.4212546,МБОУ СОШ №14,,,,,,
1022185883,way,45.2923873,130.9414494,鸡西市新兴实验学校,,,,,,
1022482821,way,43.7392131,133.8632222,МКОУ филиал СОШ №11,,,,,,
1023096591,way,44.3954927,134.0921152,МКОУ СОШ № 8,,,,,,
1024127732,way,44.7102629,134.6987058,МКОУ ООШ №16,,,,,,
1029936728,way,44.1634076,133.8574635,Начальная школа №25,,,,,,
1031558354,way,44.2214098,134.4140058,МКОУ СОШ №14 с. Ленино,,,,,,
1032489196,way,44.0898805,133.6643552,МКОУ ООШ № 21,,,,,,
1035909192,way,44.7370218,134.2127327,МКОУ СОШ №6,,,,,,
1036167361,way,45.3073909,133.5091669,Средняя школа,,,,,,
1036392713,way,43.7637808,132.9533454,Средняя школа №1,,,,,,
1036393809,way,43.8854017,133.2656984,МБОУ СШ №9,,,,,,
1036681825,way,45.8735946,134.9119568,МКОУ СОШ №13,,,,,,
1036690432,way,44.196011,132.5077986,Средняя школа №4,,,,,,
1036691678,way,44.1961655,132.4244493,Школа №9,,,,,,
1036700242,way,44.1861509,132.2003748,Средняя школа с. Вознесенка,,,Первомайская улица,3А,,
1036702289,way,44.4057706,132.3827179,Средняя школа №28,,,,,,
1036704198,way,45.238807,131.9812233,МОУ СОШ №15,,,,,,
1036705847,way,44.9051209,131.9554326,СОШ №5,,,,,,
1036707833,way,44.7409955,132.0471321,МБОУ ДОД Детская школа искусств,,,,,,
1036784561,way,44.7308726,132.031335,Средняя школа №2,,,,,,
1036784909,way,44.726818,132.0584857,,,,,,,
1036801159,way,44.4942305,132.1929637,Средняя школа с. Новодевица,,,,,,
1036802012,way,44.4386712,131.9836018,Средняя школа с. Поповка,,,,,,
1036806059,way,44.4319119,132.0876445,Средняя школа №2,,,,,,
1036812204,way,44.4273817,132.0803121,Средняя школа № 1 им. В. М. Пучковой,,,,,,
1036814085,way,42.3666482,130.1869537,,,,,,,
1037004731,way,44.4171042,131.3854404,МБОУ Средняя школа № 1,,,,,,
1037007583,way,44.4508117,131.7589071,МКОУ Средняя школа с. Нестеровка,,,,,,
1037047220,way,44.3344757,132.587192,Школа № 2 имени С.М. Валеева,,,,,,
1037240112,way,45.9354528,133.7384719,МБОУ СОШ №2,,,,,,
1037243021,way,45.8770969,133.6438402,МБОУ СОШ №5,,,,,,
1037247872,way,45.5507522,133.350133,Средняя школа с. Марково,,,,,,
1037258332,way,45.4086457,133.4922941,МОБУ ООШ ЛГО с. Курское,,,,,,
1037260563,way,45.2548771,133.5955308,Средняя школа с. Иннокентьевка,,,,,,
1037279861,way,44.6274181,135.3525985,МОБУ СОШ № 5,,,,,,
1037295122,way,44.3339404,134.9505327,Средняя школа п. Рудный,,,,,,
1037459040,way,44.2521667,135.2303521,МБОУ СОШ с. Устиновка,,,,,,
1037494766,way,42.2606327,130.2900719,,,,,,,
1037497927,way,43.0732199,134.1791267,СОШ №6 с. Глазковка,,,,,,
1037500508,way,42.1033291,130.1447614,,,,,,,
1037505998,way,42.9085304,133.6973577,МБОУ ООШ №8,,,,,,
1037508950,way,44.351324,134.3319556,МКОУ ООШ №22,,,,,,
1038134596,way,45.7364309,132.4848577,,,,,,,
1038390268,way,44.1585163,133.862966,МКОУ СОШ им. А.А. Фадеева,,,,,,
1038444719,way,43.8993656,134.2228554,МКОУ ООШ №20,,,,,,
1038552932,way,45.928225,133.7321819,МБОУ СОШ №6,,,,,,
1038584021,way,45.4962366,133.4378962,МОБУ СОШ №156 ЛГО,,,,,,
1038586136,way,45.484926,133.4325444,Школа №34,,,,,,
1038590351,way,45.4578664,133.362042,МОБУ СОШ № 4,,,,,,
1038596337,way,45.1643054,133.3953389,МОКУ Основная общеобразовательная школа,,,,,,
1038604970,way,45.1138115,133.3710744,МБОУ ООШ с.Шмаковка,,,,,,
1038607726,way,45.0043604,133.289959,Школа села Комаровка,,,,,,
1038609644,way,44.9368279,133.6876039,МОКУ СОШ с. Крыловка,,,,,,
1038611000,way,44.8266965,133.5735744,Средняя школа с. Бельцово,,,,,,
1038614765,way,44.7968791,133.7361116,МБОУ ООШ с. Марьяновка,,,,,,
1038616316,way,44.6472083,133.5927554,Средняя школа села Яблоновка,,,,,,
1038622854,way,44.2386764,133.3636178,СОШ №2 с. Новосысоевка,,,,,,
1038623717,way,44.2340037,133.3607928,МБДОУ ЦРР Детский сад с. Новосысоевка,,,,,,
1038624894,way,44.229348,133.3575239,,,,,,,
1038691282,way,44.1766103,133.2742763,МОБУ Средняя школа №10,,,,,,
1038693947,way,44.168676,133.2665781,КГОБУ Коррекционная школа №2,,,,,,
1038886289,way,44.2152331,133.170952,МБОУ СШ №12,,,,,,
1038890029,way,44.1761975,133.0281003,МОУ Школа № 10,,,,,,
1038901410,way,44.0334613,133.149084,МБОУ СШ №4,,,,,,
1038905966,way,43.8842621,132.9276522,Староварваровский филиал МБОУ Средняя школа с. Анучино,,,,,,
1038912007,way,43.0844935,133.2063757,МКОУ Средняя школа,,,,,,
1038924111,way,43.1266545,133.1381438,МБОУ СОШ №5,,,,,,
1038929126,way,42.9614467,133.108828,МО У ООШ,,,,,,
1038936136,way,42.881467,132.9880539,МКОУ ООШ с.Голубовка,,,,,,
1038939104,way,42.881467,132.9880539,МКОУ ООШ с.Голубовка,,,,,,
1038976720,way,42.834714,132.8956837,МБОУ СОШ №12,,,,,,
1038987582,way,42.8123109,132.8687705,Средняя школа №17,,,,,,
1039046506,way,42.9169956,132.8040189,МКОУ СОШ с. Новолитовск,,,,,,
1039052639,way,42.8719986,132.6720701,Школа № 26,,,,,,
1039203816,way,42.9994884,132.3067948,МБОУ СОШ №14,,,,,,
1039204158,way,43.0006327,132.3116809,МБОУ СОШ №14,,,,,,
1039222121,way,43.2888981,132.4546322,МБОУ СОШ № 27,,,,,,
1039236033,way,44.1690083,132.7724616,МБОУ СОШ №18,,,,,,
1039581025,way,42.7151781,130.779025,МКОУ Средняя школа п. Краскино,,,,,,
1039764004,way,43.1781848,131.7170386,МБОУ ООШ № 49,,,,,,
1039768434,way,44.0317691,131.4092437,МОБУ Новогеоргиевская СОШ,,,,,,
1039769187,way,43.8975986,131.3185287,МБОУ ООШ с. Корфовка,,,,,,
1039769526,way,43.9689031,131.4824768,МОБУ Чернятинская ООШ,,,,,,
1039806286,way,43.8269874,131.6312997,МБОУ СОШ с. Пуциловка,,,,,,
1040071837,way,44.0339423,131.7652385,МОБУ Галенковская СОШ,,,,,,
1040072638,way,43.9728102,131.81174,МБОУ СОШ с. Степное,,,,,,
1040074466,way,44.1626129,132.0044828,МБОУ ООШ с. Григорьевка,,,,,,
1040075164,way,44.0021398,131.9763478,МБУ СОШ с. Первомайское,,,,,,
1040079820,way,43.8946114,131.9460301,МБОУ СОШ №2 с. Воздвиженка,,,,,,
1040081269,way,43.8054813,131.8062132,МБОУ СОШ с. Борисовка,,,,,,
1040099511,way,43.8067009,132.1635273,МБОУ Средняя школа с.Раковка,,,,,,
1040103731,way,43.8303813,131.883092,МБОУ СОШ №31,,,,,,
1040376630,way,43.8213446,131.947449,Школа № 3,,,,,,
1040395673,way,43.8036889,131.9548749,Школа № 14. Корпус № 1,,,,,МБОУ «СОШ № 14»,
1040404591,way,43.8013659,131.9481928,МБОУ Гимназия №29,,,,,,
1040432368,way,43.8317171,132.0040879,КГОБУ Приморская специализированная школа,,,,,,
1040729335,way,43.4633544,132.2861562,МБОУ Средняя школа №10,,,,,,
1040959214,way,43.3240813,132.3617046,КГОБУ Шкотовская КШИ,,,,,,
1040963766,way,43.3525871,132.2952973,МБОУ ООШ № 8,,,,,,
1041079037,way,42.8898839,130.370178,珲春市第二高级中学 훈춘시제2고급중학교,,延边朝鲜族自治州,新华街,99,珲春市教育局,
1041868606,way,43.3264886,131.890912,МБОУ СОШ №5,,,,,,
1053272831,way,43.2801734,132.4522802,Школа-интернат № 28,,,,,,
1054309392,way,45.4304093,135.5195291,СОШ №26,,,,,,
1054329978,way,46.4484399,135.8266326,"МКУ ДО ""ДДТ""",,,,,,
1054333162,way,45.8978501,134.8939374,МКОУ СОШ №11,,,,,,
1054948971,way,45.1659273,131.1775606,,,,,,,
1055243587,way,45.1911282,131.2479531,平阳中学,,,,,,
1055243588,way,45.1913723,131.2499291,平阳小学,,,,,,
1058260332,way,45.2930044,130.814185,,,,,,,
1059020977,way,46.7642463,131.7775817,友谊县高级中学,,,,,,
1059021006,way,46.7662337,131.7971002,友谊县第一中学,,,,,,
1059337630,way,46.768657,131.8039135,友谊县第一小学,,,,,,
1060376288,way,45.7951351,133.7672299,МОБУ СОШ с. Рождественка,,,,,,
1060394821,way,45.8862761,133.9605904,МОБУ ООШ с. Соловьевка,,,,,,
1060396816,way,45.8961957,134.8530257,МКОУ СОШ № 24 с. Богуславец,,,,,,
1060418000,way,44.4544409,132.8579932,Вишневский филиал МБОУ СОШ № 4 села Прохоры,,,,,,
1060418725,way,44.6207702,132.7986322,МБОУ СОШ № 8,,,,,,
1060504749,way,44.5985688,132.8910682,МБОУ СОШ №9 - начальная школа,,,,,,
1060513101,way,45.1404612,134.3848873,МОБУ СОШ с. Ариадное,,,,,,
1060889929,way,45.3554273,134.346294,МООБУ ООШ с. Любитовка,,,,,,
1060890368,way,45.5425683,134.3700437,"МОБУ СОШ, Детский сад с. Орехово",,,,,,
1060891083,way,45.5438434,134.3739617,МОБУ СОШ с.Орехово,,,,,,
1060892583,way,45.827663,134.0496874,МОБУ ООШ с. Стретенка,,,,,,
1060893295,way,45.4967701,134.4470968,МОБУ СОШ с. Боголюбовка,,,,,,
1060894860,way,45.597094,134.2741808,"МОБУ СОШ, КГОБУ КШИ с.Ракитное",,,,,,
1060909088,way,46.4069452,134.1329899,МОБУ СОШ №6,,,,,,
1060910080,way,46.4408069,134.2992729,МОУ СОШ №4,,,,,,
1060911265,way,44.7219271,133.0985364,МБОУ СОШ № 15,,,,,,
1060915549,way,44.7760758,132.9555318,Филиал СОШ №7 с. Чкаловское,,,,,,
1060927382,way,44.5479822,132.8554351,Дубовской филиал МБОУ СОШ № 8 с. Спасское,,,,,,
1066119247,way,44.0558025,131.1304843,东宁市第三中学,,,,,,
1066119248,way,44.0609502,131.1107665,东宁市第二中学,,,,,,
1066119251,way,44.055001,131.1278918,东宁市朝鲜族学校,,,,,,
1069843599,way,43.9583313,133.058762,МБОУ СШ №1,,,,,,
1080553113,way,45.2040094,130.8759333,,,,,,,
1084530245,way,46.5640635,134.6702273,МОБУ СОШ №16,,,,,,
1090637207,way,44.1806238,133.8631994,МБОУ СОШ №2,,,,,,
1090641279,way,44.4196129,132.0751342,Средняя школа № 1 им. В. М. Пучковой,,,,,,
1090882246,way,45.8545515,134.5012406,МКОУ СОШ №10,,,,,,
1093708426,way,46.8006331,130.3455785,佳木斯市第一中学,,,,,,
1093708430,way,46.7986854,130.3475818,佳木斯市第一中学（二校区）,,,,,,
1100635559,way,46.5582026,131.7395351,七星泡镇第一中学,,双鸭山市,,,,
1100635560,way,46.5562704,131.7402746,云鹏希望小学,,,,,,
1100635561,way,46.5622896,131.7466102,七星泡中心小学,,双鸭山市,,,,
1100635562,way,46.5668513,131.7614492,向华小学,,双鸭山市,,,,
1101048312,way,46.5165768,131.8767907,凉水学校（七星泡第二中学）,,,,,,
1117446977,way,42.7924788,130.2351195,,,,,,,
1119370131,way,42.8430747,130.3820658,珲春国际智能制造管理学院,,,,,,
1124910383,way,45.6387853,133.5944822,Средняя школа с. Пантелеймоновка,,,,,,
1134251547,way,46.7154812,131.5835732,红兴隆第一高中,,,,,,
1134784900,way,46.522563,131.7475302,双鸭山第四十一中学,,,,,,
1134784902,way,46.5261531,131.7389764,育英小学,,,,,,
1136384246,way,43.3283604,132.0057894,,,,Центральная улица,24,,
1145634313,way,46.6295509,131.1619227,双鸭山市第五中学,,,,,,
1145644044,way,46.6280793,131.1688982,建国小学,,,,,,
1146045102,way,46.6254413,131.1615301,双鸭山一马路小学,,,,,,
1147026861,way,46.6344508,131.175295,双鸭山市林业学校,,,,,,
1147365969,way,46.6278681,131.1310532,马鞍山小学,,,,,,
1156170336,way,45.4536736,132.2667841,兴凯湖中学,,,,,,
1160063399,way,42.2371889,130.3198153,,,,,,,
1167189411,way,46.217721,133.0905521,,,,,,,
1180936604,way,42.2549657,130.3192123,,,,,,,
1180936605,way,42.2554421,130.3047743,,,,,,,
1180936751,way,42.2388225,130.276178,,,,,,,
1180936754,way,42.2369786,130.2764798,,,,,,,
1182003508,way,48.4732987,135.1064828,Волочаевский лицей,,,,,,
1182141637,way,43.3268071,132.0002371,Формат,,,Центральная улица,2,,
1182141638,way,43.3271126,132.0014744,Формат,,,Центральная улица,4,,
1184238338,way,42.9346381,130.0355499,,,,,,,
1184238888,way,42.9324316,130.0483082,,,,,,,
1184327812,way,42.9015578,130.0700322,,,,,,,
1184328641,way,42.9544533,130.0458077,,,,,,,
1185543482,way,46.3404622,132.1757489,宝清第八小学,,,,,,
1185543483,way,46.3300555,132.1917993,宝清三小,,,,,,
1185543484,way,46.3326458,132.2023567,宝清五小,,,,,,
1185543486,way,46.3280946,132.2269816,宝清七小,,,,,,
1185543487,way,46.32042,132.2067566,宝清一小,,,,,,
1185543488,way,46.3282416,132.2103187,宝清二小,,,,,,
1185546675,way,46.6158056,131.6839596,,,,,,,
1186049812,way,47.1111411,130.3094371,,,,,,,
1190368948,way,45.2888494,131.3165436,东海中学,,,,,,
1210808802,way,46.7160134,131.5532513,局直第二中学,,,,,,
1210815523,way,46.720853,131.5746185,红兴隆第二高级中学,,,,,,
1210815524,way,46.7183838,131.5751361,友谊县第三中学,,,,,,
1212237997,way,45.6475441,131.8738334,鸡西农垦高级中学,,,,,,
1213686011,way,47.4288532,134.0533967,乌苏里江小学,,,,,,
1215065702,way,43.7323602,130.280397,三河学校,,,,,,
1221968196,way,45.7655363,132.9781782,虎林市第一中学,,,,,,
1227741165,way,47.8909233,132.5160706,,,,,,,
1259385036,way,43.7946377,130.2723548,上河学校,,,,,,
1310998443,way,44.4001881,131.1577209,绥芬河市第一中学,,,,,,
1310998444,way,44.401022,131.1577906,绥芬河市第四小学,,,,,,
1311121323,way,44.0714045,132.3822083,Средняя общеобразовательная школа с. Ляличи,,,,,,
1316434092,way,46.6546326,131.1617011,师范附属小学,,,,,,
1316434093,way,46.6546358,131.1633006,双鸭山市三十七中学,,,,,,
1316434095,way,46.6401182,131.1647385,双鸭山市三十二中学,,,,,,
1319610549,way,46.7900528,130.3208554,佳木斯市委党校,,,,,,
1319610550,way,46.788417,130.320747,佳木斯第二十小学（万达校区）,,,,,,
1319610551,way,46.7883502,130.3181214,佳木斯第二十中学,,,,,,
1322295811,way,46.7811602,130.1866488,红旗中学,,,,,,
1324288911,way,42.8640728,132.4195969,,,,,,,
1329207719,way,46.7179989,131.5681993,友谊县第三小学,,,,,,
1329207720,way,46.7076143,131.5694481,友谊县第四小学,,,,,,
1331871489,way,47.5528345,130.4465035,鹤北高中,,,,,,
1331871491,way,47.5506501,130.4446926,鹤北小学,,,,,,
1341232608,way,46.7940926,130.3189799,佳木斯技师学院,,,,,,
1341232618,way,46.7786977,130.4214364,佳木斯实验中学,,,,,,
1341232649,way,46.7836847,130.3748745,佳木斯市立人高中,,,,,,
1350827088,way,47.5881254,133.5082796,,,,,,,
1355356228,way,45.2995855,130.9945866,鸡西实验中学,,,东胜街,1,,
1356399562,way,45.3159755,130.9573329,河畔家园学校,,,,,,
1359834966,way,46.7639615,131.2525538,,,,,,,
1359840827,way,46.7245008,131.1180921,建新高中,,,,,,
1359840830,way,46.7341534,131.1115794,,,,,,,
1359840848,way,46.73347,131.1406854,,,,,,,
1365221811,way,46.6580946,131.1529519,三十六中,,,,,,
1365221812,way,46.6615214,131.13114,双鸭山市成龙中学,,,,,,
1365221821,way,46.6770713,131.1291868,双鸭山技师学院(新校区),,,,,,
1375098311,way,44.1568204,133.2771845,Гимназия № 7,,,,,,
1382738054,way,43.7330354,130.3454011,罗子沟中心小学,,,,,,
1382738065,way,43.7283932,130.3343777,罗子沟中学,,,,,,
1383803388,way,43.1998282,131.0727878,珲春市春化镇学校 훈춘시춘화진학교,,延边朝鲜族自治州,,,珲春市教育局,
1383978281,way,42.9317415,130.4890501,珲春市哈达门乡学校 훈춘시하다문향학교,,延边朝鲜族自治州,,,珲春市教育局,
1383987211,way,42.9097112,130.5046303,珲春市杨泡乡小学校 훈춘시양포향소학교,,延边朝鲜族自治州,,,珲春市教育局,
1384009900,way,42.8701752,130.4142808,珲春市马川子乡小学校 훈춘시마천자향소학교,,延边朝鲜族自治州,,,珲春市教育局,
1384343015,way,42.8629188,130.341877,珲春市第四中学西校区 훈춘시제4중학교서교구,,延边朝鲜族自治州,龙源西街,,珲春市教育局,
1384343016,way,42.8596262,130.3411701,珲春市第六小学校 훈춘시제6소학교,,延边朝鲜族自治州,龙源西街,2322,珲春市教育局,
1385221913,way,42.9028319,130.3053714,珲春市第十小学校 훈춘시제10소학교,,延边朝鲜族自治州,,,珲春市教育局,
1385221917,way,42.8861414,130.2889674,珲春市英安镇学校 훈춘시영안진학교,,延边朝鲜族自治州,,,珲春市教育局,
1385221942,way,42.8989468,130.3015549,珲春市第八中学校 훈춘시제78중학교,,延边朝鲜族自治州,,,珲春市教育局,
1385308112,way,42.7846361,130.3320221,珲春市板石镇小学校 훈춘시반석진소학교,,延边朝鲜族自治州,,,珲春市教育局,
1385337687,way,42.8466998,130.3977369,珲春金马职工学校,,,,,,
1385337758,way,42.8406176,130.3921368,珲春市英才学校 훈춘시영재학교,,延边朝鲜族自治州,,,珲春市教育局,
1387829107,way,42.8737545,130.3684589,珲春市第三中学校 훈춘시제3중학교,,延边朝鲜族自治州,春光东街,239,珲春市教育局,
1387829108,way,42.875906,130.3542246,珲春市第四中学校 훈춘시제4중학교,,延边朝鲜族自治州,文化路,875,珲春市教育局,
1387829109,way,42.8532759,130.3511869,珲春市第五中学校 훈춘시제5중학교,,延边朝鲜族自治州,西滨河南街,2624,珲春市教育局,
1387829110,way,42.8876891,130.3671942,珲春市第六中学校 훈춘시제6중학교,,延边朝鲜族自治州,林北街,555-109,珲春市教育局,
1387829111,way,42.8610378,130.3662303,珲春市第七中学校 훈춘시제7중학교,,延边朝鲜族自治州,河南西街,574,珲春市教育局,
1387829112,way,42.8337786,130.3045019,珲春市三家子乡学校 훈춘시삼가자향학교,,延边朝鲜族自治州,,,珲春市教育局,
1387829113,way,42.6452835,130.4718135,珲春市敬信镇学校 훈춘시경신진학교,,延边朝鲜族自治州,,,珲春市教育局,
1387829114,way,42.8731824,130.3712946,珲春市第一小学校 훈춘시제1소학교,,延边朝鲜族自治州,龙源东街,521,珲春市教育局,
1387829115,way,42.8615451,130.3476183,珲春市第二实验小学校 훈춘시제2실험소학교,,延边朝鲜族自治州,友谊胡同,141,珲春市教育局,
1387829116,way,42.8728905,130.3665561,珲春市第四小学校 훈춘시제4소학교,,延边朝鲜族自治州,春光东街,79,珲春市教育局,
1387829120,way,42.8743702,130.37192,珲春市寄宿制学校,,,,,,
1387829123,way,42.8720812,130.3925795,珲春市第五小学 훈춘시제5소학교,,,,,珲春市教育局,
1387829124,way,42.8729063,130.3941444,珲春市第一高级中学东校区,,,,,,
1388794108,way,43.7951957,130.2927545,,,,,,,
1389998795,way,44.0272124,132.1689924,Школа № 1,,,,,,
1389998798,way,44.0222012,132.1660237,Школа № 2,,,,,,
1392592436,way,46.2420967,130.5504856,桦南县实验中学,,,,,,
1395521403,way,47.2696793,132.0613983,富锦市博文高级中学,,,,,,
1418043465,way,46.4818326,132.239534,青原中学,,,,,,
1418043466,way,46.4898798,132.2383273,青原小学,,,,,,
1419588024,way,45.2975976,130.9892165,鸡西小学,,,,,,
1430319246,way,44.1601153,133.2702193,Школа № 5,,,,,,
1430567673,way,47.8735363,134.6469755,海青镇中学,,,,,,
1430567674,way,47.8738183,134.6486835,海青镇中心小学,,,,,,
1441572391,way,46.8265501,130.4288189,东兴小学,,,,,,
1442949569,way,45.6177638,132.697526,八五六农场青山中学,,,,,,
1447117488,way,47.7102106,134.1634747,,,,,,,
1448679481,way,47.2704356,132.629968,七星农场第一中小学,,,,,,
1448679518,way,47.2385694,132.0254002,富锦市第八小学,,,,,,
1448679525,way,47.2446185,132.0082949,富锦市第二中学,,,,,,
1448679526,way,47.2476484,132.0204077,富锦市第五中学,,,,,,
1448690308,way,47.2412531,132.0389213,富锦第一中学,,,,,,
1453136025,way,46.8065923,130.2744922,云环小学,,,,,,
1453136026,way,46.8051408,130.2739072,佳木斯市第十六中学,,,,,,
1453136047,way,46.7978351,130.3874856,黑龙江农业职业技术学院,,,,,,
1453136056,way,46.7542134,130.3495474,,,,,,,
1454069500,way,44.1549737,133.2783955,Школа №4,,,,,,
1454069504,way,44.1618935,133.2654776,Школа №2,,,,,,
1454069505,way,44.1599016,133.265199,Школа №8,,,,,,
1454069508,way,44.1624225,133.2610155,Школа № 1,,,,,,
1454069509,way,44.1635396,133.2611306,Школа № 3,,,,,,
1455707942,way,42.8594199,131.3899698,Средняя школа №2,,,,,,
1465662368,way,43.9270181,132.0066729,МБОУ Средняя общеобразовательная школа им. А.И. Крушанова,,Михайловка,Красноармейская улица,33,,
1466141998,way,47.4013688,132.4792544,新建街道中心学校,,,,,,
1467058884,way,47.5733757,132.1031441,绥滨县第八中学,,,,,,
1471942580,way,42.883192,132.3578829,Школа № 258 городского округа Зато г. Фокино,,,,,,
1472007829,way,47.9727323,134.952308,СОШ с. Могилевка,,,,,,
1475078444,way,48.0023001,135.3922132,СОШ с.Соколовка,,,,,,
1475078449,way,47.9642431,135.1153955,СОШ № 2,,,,,,
1475078450,way,47.7089674,134.9148398,ООШ с. Дормидонтовка,,,,,,
1475078457,way,47.2770925,134.9855255,ООШ п. Шумный,,,,,,
1481650106,way,47.5491897,131.8410631,绥滨县第三中学,,,,,,
1483302399,way,47.9363434,132.6197129,Средняя общеобразовательная школа села Ленинское,,село Ленинское,Октябрьская улица,6,Департамент образования Еврейской автономной области,
2128639779,node,46.6449398,142.7694873,школа №3,,,,,,
2148735159,node,46.6384418,142.7887932,с/ш №4,,,,,,
2149761248,node,46.6341435,142.7773315,с/ш №6,,,,,,
2149934139,node,46.6478627,142.8107199,Школа с. Раздольное,,,,,,
2316614605,node,46.8514255,142.5841658,Средняя школа,,,,,,
2392475924,node,46.7210748,142.7479292,Соловьёвская средняя школа,,,,,,
2437915385,node,48.6233761,142.7789824,Музыкальная школа,,Макаров,,,,
3077643541,node,51.8111442,143.149778,МБОУ Гимназия п. Ноглики,,,,,,
3923472096,node,46.9634226,142.7334565,Вечерняя школа № 1,,,,,,
4124826089,node,46.9514791,142.7487355,Школа английского языка KaBen,,,,,,
4762639756,node,49.1639206,142.122334,МБОУ ДОД ДЮСШ,,,улица Победы,1,,
4762640126,node,49.1602605,142.1170677,МБОУ ДОД Детская школа искусств,,,,,,
5987281306,node,46.9456219,142.7401966,Кванториум,,,Пограничная улица,42,,
6187645803,node,53.5913763,142.9499259,Диалог,,,,,,
6187714773,node,53.588359,142.947389,Школа искусств,,,,,,
7089974054,node,49.2882385,142.8789215,МБОУ СОШ с.Леонидово,,,Поронайская улица,33,,
11920843914,node,53.164178,141.4332121,Основная Общеобразовательная школа п. Пуир,,,,,,
11920843935,node,53.0421349,141.248145,Начальная школа-детский сад,,,,,,
81466212,way,46.9326626,142.7516443,Школа № 26,,,,,,
82992654,way,46.9285151,142.7525592,Школа № 6,,,,,,
83096914,way,46.9392776,142.7378437,МАОУ Гимназия №1 им. А.С. Пушкина,,,,,,
84202486,way,46.9408396,142.7483626,Школа № 21,,,,,,
84612888,way,46.9625834,142.7316002,Школа № 5,,,,,,
86092011,way,46.9102849,142.7560425,Sakhalin International School (SIS),,Южно-Сахалинск,Холмистый переулок,1,,
87220581,way,50.8962238,142.1642499,Средняя школа №2,,,Дальневосточная улица,3,,
87472520,way,46.9941484,142.6745827,Средняя школа № 19,,,,,,
89421938,way,46.9647564,142.7081402,Средняя школа № 15,,Южно-Сахалинск,улица Александра Матросова,6,,
89430379,way,46.925438,142.6468416,СОШ №5 с.Троицкое,,,,16А,,
89430416,way,46.924116,142.6468127,Начальная школа,,,,28В,,
91596033,way,47.0544739,142.7319524,Средняя общеобразовательная школа №32,,,,,,
110372031,way,49.967044,143.2651758,Первомайская сельска школа,,,улица Гоголя,4,,
110372480,way,49.9685099,143.2643336,ДЮСШ,,,,,,
110372481,way,49.968409,143.2645956,Кабинет труда МОУ СОШ с.Первомайск,,,,,,
110372483,way,49.9683198,143.2648271,Детский сад,,,,,,
113956723,way,49.7440383,142.8325114,,,,,,,
127854342,way,47.0459563,142.0464604,Станция юных натуралистов,,,,,МБОУ ДО СЮН г. Холмска,
128889376,way,50.9057004,142.6775205,,,,,,,
128889383,way,50.9056159,142.6768076,Школа Воскресеновка,,Воскресеновка,Школьная улица,11,,
128962044,way,53.5899913,142.9455393,СОШ №5,,,,,,
128971381,way,53.5970925,142.9583847,СОШ №1,,,,,,
128974824,way,53.5934507,142.9402908,,,,,,,
129794329,way,46.7150209,142.5286893,МБОУ СОШ № 1 (дошкольные группы),,,Красноармейская улица,17,,
129794339,way,46.7158522,142.5265983,,,,улица Ленина,16,,
129794341,way,46.7162337,142.5259585,МБОУ СОШ № 1 (начальные классы),,,улица Ленина,,,
130929920,way,47.2369076,142.7519955,МБОУ СОШ с.Сокол,,Сокол,Лесная улица,45,,
135891031,way,47.4443737,141.9727803,Средняя школа села Чехов,,,,,,
152818774,way,49.7464259,142.8247256,Детский сад №17,,,,,,
152818775,way,49.7439598,142.834999,Детский сад,,,,,,
159693162,way,46.6287337,142.7768373,Детская школа искусств,,,Советская улица,14,,
171174462,way,48.6228117,142.7802244,СОШ №2,,Макаров,улица 50 лет Октября,50ЛЕТОКТЯБРЯ,,
193594754,way,46.6191819,142.7754663,,,,Восточная улица,29/1,,
206064056,way,46.6170223,142.7726171,Средняя Школа №2,,,,,,
207237137,way,48.9882688,142.1350636,МБОУ СОШ с. Никольское,,Никольское,Автомобильная улица,21,,
207245923,way,49.2036807,142.8883637,МКОУ СОШ с. Тихменево,,Тихменево,Нагорная улица,3,,
207385177,way,46.6225359,142.4267424,МОУ СОШ № 4,,,Лесная улица,18,,
209021880,way,46.6270042,142.7718672,Средняя Школа №1,,,,,,
210707732,way,49.0815362,142.0663338,"МБОУ ДО ""Дом детского творчества""",,Углегорск,улица лейтенанта Егорова,20,,
211085740,way,49.0770449,142.0654462,МБОУ СОШ №5,,,,,,
211197430,way,48.9888586,142.1344934,,,,,,,
211221162,way,49.0716659,142.0317108,,,,,,,
211221163,way,49.0717214,142.0312708,МБОУ СОШ №2 г. Углегорска,,,Приморская улица,35,,
211252722,way,48.884261,142.0053357,,,,,,,
211569291,way,49.2883514,142.878744,МБОУ СОШ с. Леонидово,,Леонидово,Поронайская улица,33,,
212701325,way,51.8112569,143.1494475,,,,,,,
227732358,way,53.6750214,142.6201879,,,,,,,
227894329,way,53.5811803,142.5112538,Начальная школа,,Москальво,Советская улица,3,,
235736346,way,48.6237306,142.780186,СОШ №1,,,Хабаровская улица,16,,
253441334,way,53.4916171,143.0686217,,,Восточное,Школьная улица,3,,
253807649,way,46.550031,141.8594932,ГКОУ школа-интернат № 3,,,,,,
254633999,way,46.7769112,142.3878139,МОУ СОШ № 3,,,Школьная улица,18,,
255081476,way,46.688128,141.8614323,Школа №2,,,,,,
280667993,way,49.7433232,142.8217537,Школа-Интернат,,,,,,
291852090,way,47.058065,142.0531109,Школа № 8,,,,,МАОУ СОШ № 8 г. Холмска,
292672098,way,47.7594677,142.0632512,,,,,,,
303408727,way,51.8127599,143.1624225,,,,,,,
303599734,way,51.8112112,143.1572393,Школа №1 им. Г. П. Петрова,,,,,,
305290346,way,48.9462065,142.2158674,МБОУ СОШ с. Краснополье,,Краснополье,Новая улица,1,,
305743697,way,49.4383991,142.1218232,Лесогорская школа,,,,,,
305987148,way,49.6552123,142.1795183,Средняя школа,,,,,,
321745702,way,46.7155794,142.527288,МБОУ СОШ № 1,,,улица Ленина,16,,
323786815,way,47.1287667,142.7589667,СОШ № 34,,Березняки,Крайняя улица,6А,,
323968358,way,46.7160224,142.5270871,Школа №1 имени Д. Ю. Плотникова,,,,,,
327693618,way,46.7214825,142.5175838,Средняя школа №2,,,,,,
328315952,way,46.7150372,142.5287332,,,,,,,
329120565,way,47.0401621,142.0449216,Школа № 1,,,,,МАОУ СОШ №1 г. Холмска,
332636505,way,46.6229553,142.4271782,,,,,,,
336769607,way,46.7772348,142.3877263,,,,,,,
389063482,way,46.9624623,142.7408071,Школа № 13 имени П.А.Леонова,,,,,,
389063484,way,46.9534379,142.7204294,Школа № 14,,,,,,
389063496,way,46.9644091,142.7189628,Восточная Гимназия,,,,,,
389190647,way,46.9420936,142.7212663,Вечерняя школа № 2,,,,,,
389190649,way,46.9580086,142.7194482,Коррекционная школа,,,,,,
389190651,way,46.9375744,142.748959,МАОУ СОШ № 22,,,,,,
389190653,way,47.0167898,142.7133857,Школа № 30,,,,,,
389190654,way,47.0454146,142.7238838,Школа № 31,,,,,,
397119811,way,46.9628931,142.7348338,Центральная детская музыкальная школа,,,,,,
397439014,way,46.9622869,142.738394,Детская художественная школа,,,,,,
408999369,way,47.3116732,142.0265665,Школа села Костромское,,,,,,
470106480,way,46.9530758,142.7624783,Школа олимпийского резерва по горнолыжному спорту и сноуборду,,Южно-Сахалинск,улица Горького,7/4,,
483515319,way,49.1624226,142.1114192,МОУ Средняя общеобразовательная школа №1,,,Коммунистическая улица,1А,,
483515553,way,49.1591263,142.0971229,МОУ Средняя общеобразовательная школа №2,,,улица Мира,15А,,
495037770,way,51.5753201,141.9407781,Школа с.Виахту,,Виахту,Почтовая улица,4,,
550838103,way,52.2265442,141.5130752,,,,Пограничная улица,12,,
670351123,way,49.0794221,142.0758442,Школа № 1,,,,,,
864148151,way,47.3272657,142.7055975,,,,,,,
909460103,way,47.0539556,142.7337596,,,,,,,
909471102,way,47.0469167,142.7264851,,,,,,,
909549728,way,47.0157037,142.7130506,Коррекционная школа «Надежда»,,,,,,
961981534,way,46.6554061,141.8618913,Школа №3,,,,,,
1020773003,way,49.2147676,143.091495,Школа №8,,,,,,
1083997344,way,49.1013679,142.9560877,Школа села Гастелло,,,,,,
1086129615,way,51.321428,142.1831133,Школа села Хоэ,,,,,,
1086984615,way,50.8859233,142.1619619,Школа №6,,,,,,
1149611555,way,53.5872507,142.9489261,,,,,,,
1157858052,way,52.337466,143.0543755,,,,,,,
1167340893,way,50.8416317,142.6661021,Школа №3,,,,,,
1225864116,way,46.3654449,143.3677124,Средняя общеобразовательная школа с. Новиково,,,,,,
1238794602,way,53.5958556,142.9540897,СОШ №7,,,,,,
1284322273,way,47.3232904,142.6361869,,,,,,,
1314642720,way,48.4066201,142.095309,,,,,,,
1416234481,way,47.0165669,142.7120319,,,,,,,
1427927090,way,50.8458244,142.6594389,Школа № 1,,,,,,
1434044034,way,49.2239476,143.1146895,Школа № 1,,,,,,
1451956101,way,46.8681751,142.7604753,МАОУ СОШ №25 им. А. П. Чехова,,,,,,
1472007823,way,52.8538028,141.2008505,ООШ п. Нижнее Пронге,,,,,,
1019397964,node,59.5550505,150.8050752,ПЛ №4,,,,,,
1748543366,node,60.0857925,150.8947024,,,,,,,
4270927294,node,59.5597075,150.8085542,Музыкальная школа,,,,,,
4741335823,node,59.5680587,150.8072299,Магаданский политехникум 1 корпус,,,,,,
5312878322,node,62.0840942,150.5278017,Школа N1,Магаданская область,,улица Победы,5,,
5622189721,node,62.5269933,149.6266911,Спортивная школа,,,,,,
5632678523,node,62.5215896,149.6196717,Начальная Школа,,,,,,
6246522622,node,62.5748544,155.3789338,,,,,,,
10020517665,node,59.5738882,150.8197054,ДЮСШ им. Е. Вяльбе,,,,,,
11251550494,node,61.1345167,149.6297105,Тенькинская детско-юношеская спортивная школа им. Карачарова,,,,,,
11596508521,node,62.341886,150.7543927,МБОУ «СОШ п.Дебин»,,,,,,
11901480142,node,59.6506239,149.0889414,Начальная школа-детский сад с. Балаганное,,,,,,
11902290746,node,59.6710464,150.1313142,"МКОУ ""СОШ п. Армань""",,,,,,
11904571502,node,59.726212,149.3310857,МКОУ «СОШ с.Тауйск»,,,,,,
13204128045,node,59.5527373,150.8178599,Гимназия № 24,,Магадан,улица Наровчатова,23,,
13204133238,node,59.5547663,150.8232222,Школа № 18,,Магадан,Комсомольская улица,47А,,
13204155853,node,59.5912203,150.7855329,Школа №28,,Магадан,Речная улица,3/2,,
13204174736,node,59.5589634,150.8105858,Гимназия (английская) №17,,Магадан,Якутская улица,44А,,
13204204718,node,59.902539,150.8677808,Школа №23,,Уптар,Синегорская улица,1,,
13204207843,node,59.9209168,150.7490423,Школа №20,,Сокол,улица Гагарина,19,,
39011817,way,59.5628863,150.7821595,Школа № 21,,,Октябрьская улица,15,,
121504397,way,60.0857876,150.8949262,НАЧАЛЬНАЯ ШКОЛА-ДЕТСКИЙ САД,,,улица Геологов,48,,
135692024,way,60.1004298,150.9293341,Палаткинская Средняя Школа N1,,,улица Ленина,44,,
135692206,way,60.1017857,150.9355431,Палаткинская средняя школа № 2,,,улица Ленина,1,,
142351775,way,59.7603888,148.6536297,,,Талон,Молодёжная улица,1,,
170296761,way,62.7786462,148.1438575,Начальная общеобразовательная школа г. Сусумана,,,Советская улица,7,,
170675792,way,62.7788542,148.1525202,,,,,,,
170677029,way,62.7797933,148.1585531,Профессиональный лицей № 2,,,,,,
170677031,way,62.7820657,148.1518674,Детская музыкальная школа,,,Набережная улица,24,,
210652598,way,59.5506291,150.8080473,Школа №1,,,,,,
211651390,way,59.5616349,150.79721,"Школа №7""",,Магадан,улица Билибина,4,,
211853238,way,59.5635014,150.8127441,Вечерняя школа,,,Парковая улица,6,,
214561408,way,59.5630324,150.7916824,Школа № 13,,,,,,
217503262,way,59.5641249,150.8111086,Средняя школа №2,,,,,,
217711855,way,59.557992,150.875898,Автодром,,,,,,
533149510,way,57.0918015,156.742512,,,,,,,
533149512,way,57.0870936,156.7208357,,,,,,,
533149513,way,57.2009037,156.8891041,,,,,,,
723282335,way,59.5783328,150.804326,Школа № 4,,Магадан,улица Шандора Шимича,20,,
921297606,way,59.5800538,151.3011605,,,,,,,
921297618,way,59.5787024,151.2933279,Ольская музыкальная школа,,,,,,
921760116,way,59.5839025,151.2965329,,,,,,,
921837938,way,62.2650922,151.6682004,МБОУ Средняя Общеобразовательная школа п. Оротукан,,,,,,
921843245,way,62.9327911,152.3862946,Сеймчанская школа № 1,,,,,,
922267728,way,62.5217669,149.6192822,,,,,,,
922267761,way,62.5218027,149.610048,Ягоднинская общеобразовательная школа,,Ягодное,"ул. Мира, д. 2",,,
922986228,way,62.7815132,148.1560748,,,,,,,
974518578,way,59.5782332,150.8158716,Школа №15,,Магадан,Ямская улица,9,,
982173223,way,59.5566282,150.8127544,14 школа,,,,,,
982173576,way,59.5587912,150.8174338,30 школа,,,,,,
1099321211,way,59.7541404,151.4976822,МОУ СОШ с. Клёпка,,,,,,
1111488410,way,59.5803483,150.8186547,Эколого-Биологический лицей,,,,,,
1283390060,way,59.6712954,150.1316881,,,,,,,
2293671374,node,56.3209647,160.847299,,,,,,,
2876202206,node,59.0847376,159.9490864,Детский дом,,,,,,
2876202209,node,59.0828833,159.9496175,Музыкальная школа,,,,,,
2876202219,node,59.0836885,159.9486956,Школа №1,,,,,,
4382975493,node,56.2619817,162.5888615,СШ N2,,,,,,
4383005291,node,56.2413184,162.5508823,Вилючинский индустриальный техникум,,,,,,
4383038890,node,56.242331,162.5411984,СШ N3,,,,,,
4757776652,node,56.2413897,162.5466044,Музыкальная,,,,,,
4877187625,node,56.2645186,162.59257,ДЮСШ,,,,,,
1432475121,node,53.0575243,158.6642946,Гимназия № 39,,,,,,
2206285731,node,53.047577,158.653521,Вечерняя школа №16,,,,,,
2257839937,node,53.0706868,158.6460108,школа №40,,,,,,
2525146532,node,53.0651884,158.6324342,Аттестационный центр,,,,,,
2912247112,node,52.9174765,158.5188734,Худ.школа №2,,,,,,
3983540097,node,53.1898255,158.3790141,ДЮСШ №1,,,,,,
4472323290,node,53.1668104,158.3692499,СПТУ N6,,,,,,
4586327689,node,54.2994402,155.9472868,,,,,,,
5117370224,node,52.9183126,157.0482605,,,,,,,
5394440222,node,53.2832183,158.2124101,Корякская средняя школа 16,,,,,,
5816983553,node,53.2529712,158.0257316,Новолесновская,,,,,,
9918076363,node,52.9347367,158.4065417,Музыкальная школа №1,,,,,,
13109505801,node,53.0718004,158.6464717,Начальная школа номер 40,,,,,,
3182648948,node,69.8761643,175.7522525,Начальная школа,,,,,,
4441514791,node,64.7317028,177.6903003,Музыкальная школа,,,,,,
4597016391,node,68.7552415,161.3275791,Черская средняя общеобразовательная школа,,,,,,
4757693021,node,62.4904518,165.3460449,"МКОУ ""Манильская средняя школа""",,,,,,
4959345921,node,64.7308109,177.5136872,Детская школа искусств городского округа Анадыр,,,,,,
6740057013,node,64.7244465,177.7459253,Средняя школа №1,,,,,,
8195607760,node,68.8980474,170.7175854,Средняя школа с. Рыткучи,,,,,,
8195615442,node,68.1116158,164.1767049,Основная общеобразовательная школа с. Островное,,,,,,
8195615677,node,69.9359513,167.9989131,Начальная школа с. Айон,,,,,,
8200679630,node,67.255111,167.9641986,Начальная школа,,,,,,
9251325132,node,63.0628705,179.2519936,,,,,,,
