osm_id,name,lat,lon,region,federal_district,cluster,cluster_name,dist_to_region_center_km,dist_to_moscow_km,federal_district_code,gps_density_5km,grp_per_capita_2021,population_2021,urban_pct
254979752,"ГКОУ ""Тверская школа №4""",56.8734882,35.8967219,Tver',ЦФО,5,Кластер 6,1.8594708497381545,163.4201293117472,1,180031,352,1271,74
286139294,Ср. школа,57.3182094,32.0771313,Novgorod,СЗФО,5,Кластер 6,142.10621909611768,381.3932239439045,2,1512,381,606,70
311405248,50,55.6617483,38.038944,Moskva,ЦФО,7,Кластер 8,28.17803619154024,28.392204217178673,1,882917,579,8524,81
313034914,Институт повышения квалификации специалистов стройиндустрии и промышленности стройматериалов,55.6595985,37.9845017,Moskva,ЦФО,7,Кластер 8,25.110977341712346,25.35314029023509,1,882917,579,8524,81
441944745,Гимназия №5,55.9356857,37.8371609,Moskva,ЦФО,7,Кластер 8,24.676728866784995,24.247988844614184,1,870849,579,8524,81
441944768,Школа №2,55.9369869,37.8370741,Moskva,ЦФО,7,Кластер 8,24.79415158566867,24.36430267005816,1,870849,579,8524,81
441945507,Школа №1,55.9184605,37.8110194,Moskva,ЦФО,7,Кластер 8,22.181279940061057,21.7486025370867,1,870849,579,8524,81
455040471,Белгородская коррекционная школа-интернат № 23,50.5615049,36.5610181,Belgorod,ЦФО,5,Кластер 6,4.3826442181796255,581.8407413554688,1,285195,546,1549,67
461584432,Детская школа искусств,51.6949705,39.0208913,Voronezh,ЦФО,5,Кластер 6,11.53138055515983,460.8591560220366,1,40341,432,2333,66
528720522,ЦО 1432,55.6426021,37.3414064,Moskva,ЦФО,7,Кластер 8,21.11202966146299,21.400094454287935,1,577557,579,8524,81
562719111,Детгородковская средняя школа,56.1726986,36.1284353,Moskva,ЦФО,7,Кластер 8,103.8921056888164,103.62492922467813,1,699,579,8524,81
577563310,Школа № 1,55.4461836,37.7366075,Moskva,ЦФО,7,Кластер 8,34.70342357707035,35.23012413462358,1,364171,579,8524,81
590196337,Прохоровская гимназия,51.0357814,36.7356201,Belgorod,ЦФО,5,Кластер 6,49.880277487275954,528.0781153390988,1,74609,546,1549,67
598510481,школа №4,55.4524881,37.7553417,Moskva,ЦФО,7,Кластер 8,34.29592462645103,34.81885849336013,1,1010654,579,8524,81
618934409,Школа № 1355,55.5404804,37.5778667,Moskva,ЦФО,7,Кластер 8,23.543778717777073,24.071891695200343,1,1564662,579,8524,81
628673316,Школа №1 им. М. В. Серёгина,56.1647063,38.8823079,Vladimir,ЦФО,5,Кластер 6,94.46350422617914,90.90532949726888,1,16683,353,1378,78
632242132,Воскресная школа,51.6616404,39.2086621,Voronezh,ЦФО,5,Кластер 6,2.054239557167791,467.1046242863943,1,302771,432,2333,66
663731001,Кванториум,50.1944876,39.5730396,Voronezh,ЦФО,5,Кластер 6,166.53788498796408,632.031021443941,1,31767,432,2333,66
663731002,Лицей №4,50.1973684,39.5686975,Voronezh,ЦФО,5,Кластер 6,166.17212912179258,631.6568852078007,1,31767,432,2333,66
663749992,Школа №2,50.2015029,39.5573069,Voronezh,ЦФО,5,Кластер 6,165.59038480261063,631.0492577336641,1,31767,432,2333,66
663975944,Школа №2,54.7392393,35.2188032,Kaluga,ЦФО,5,Кластер 6,71.34993567127914,189.4435473639032,1,67850,519,1010,76
663975948,Школа №1,54.7399293,35.2336,Kaluga,ЦФО,5,Кластер 6,70.49045582308098,188.64493112150188,1,67850,519,1010,76
694089524,Классический пансион МГУ им. М.В. Ломоносова,55.7161568,37.4355618,MoscowCity,ЦФО,2,Кластер 3,12.061193967680774,12.219068611435771,1,1835205,1848,12655,100
695380171,Школа №8,50.8724275,39.0987815,Voronezh,ЦФО,5,Кластер 6,89.10581394733278,551.8149141332802,1,29643,432,2333,66
702055518,Острогожская школа №6,50.8533618,39.0524735,Voronezh,ЦФО,5,Кластер 6,91.48725037643452,553.3685616676211,1,29643,432,2333,66
715707817,Центральная школа,56.7435342,41.3739811,Ivanovo,ЦФО,5,Кластер 6,37.51031378194074,256.69114684406884,1,1325,266,1003,81
776130740,Железногорская детская школа искусств,52.3290988,35.3624824,Kursk,ЦФО,5,Кластер 6,87.55519133049525,408.43613583696623,1,162504,417,1105,68
781648578,Базовая школа,50.2115422,38.1027422,Belgorod,ЦФО,5,Кластер 6,115.5899234570186,617.3440250857907,1,43880,546,1549,67
824056353,Школа №3,50.200645,38.1052819,Belgorod,ЦФО,5,Кластер 6,116.22258356082742,618.5631792540273,1,43880,546,1549,67
827323234,Детская школа искусств № 18,51.5503205,39.0887765,Voronezh,ЦФО,5,Кластер 6,15.043257144113197,477.5437498676371,1,91012,432,2333,66
844647359,Школа №1,57.4193168,35.0031958,Tver',ЦФО,5,Кластер 6,82.99495919489713,244.5906582378495,1,2638,352,1271,74
859160216,Школа танцев,51.317446,37.8873419,Belgorod,ЦФО,5,Кластер 6,121.2405306703306,493.8432216739223,1,159502,546,1549,67
864148473,Детская школа исскуств,51.6045351,36.2509398,Kursk,ЦФО,5,Кластер 6,14.512034043017362,470.268182251462,1,84,417,1105,68
880186221,Средняя школа №1 им. Октябрьской революции,52.1558261,34.5049465,Bryansk,ЦФО,5,Кластер 6,121.26066164432191,449.0176873981129,1,7135,329,1196,71
893991091,Лицей №3,51.2832974,37.8117936,Belgorod,ЦФО,5,Кластер 6,114.78555751147894,497.4847349460718,1,111303,546,1549,67
893991249,Cредняя общеобразовательная школа №11,51.2846856,37.8105277,Belgorod,ЦФО,5,Кластер 6,114.8210979352,497.3282741114619,1,111303,546,1549,67
894129602,Средняя общеобразовательная школа №27,51.2878998,37.7980384,Belgorod,ЦФО,5,Кластер 6,114.40732896089766,496.9505413945817,1,111303,546,1549,67
894129655,Средняя общеобразовательная школа №12,51.282864,37.7979779,Belgorod,ЦФО,5,Кластер 6,114.03236677447524,497.5102565720028,1,111303,546,1549,67
894129662,Средняя общеобразовательная школа №13,51.2803142,37.8076409,Belgorod,ЦФО,5,Кластер 6,114.3497647586688,497.8093707113821,1,111303,546,1549,67
894175946,Основная общеобразовательная школа №36,51.3152305,37.8638808,Belgorod,ЦФО,5,Кластер 6,119.8493989270626,494.0360955842256,1,159502,546,1549,67
898977488,ЦДЮТ №3,51.2814046,37.7979828,Belgorod,ЦФО,5,Кластер 6,113.925154103056,497.67250034943766,1,111303,546,1549,67
898977515,Школьный тир,51.2805598,37.7941652,Belgorod,ЦФО,5,Кластер 6,113.66398613892248,497.76045041783306,1,111303,546,1549,67
899024315,Средняя общеобразовательная школа №15,51.2896354,37.8087065,Belgorod,ЦФО,5,Кластер 6,115.0901101789737,496.7749780446605,1,111303,546,1549,67
900432327,Православная гимназия,51.2928793,37.8231082,Belgorod,ЦФО,5,Кластер 6,116.07967565873336,496.4394338214775,1,111303,546,1549,67
900610761,Воскресная школа,51.2932059,37.823948,Belgorod,ЦФО,5,Кластер 6,116.14751062278464,496.40464706747736,1,111303,546,1549,67
900610804,Открытая общеобразовательная школа №35,51.2956212,37.8319696,Belgorod,ЦФО,5,Кластер 6,116.7438716737538,496.1509807830322,1,111303,546,1549,67
900918350,Средняя общеобразовательная школа №5,51.2950833,37.839319,Belgorod,ЦФО,5,Кластер 6,117.08941709258282,496.2248350170776,1,111303,546,1549,67
902431745,Средняя общеобразовательная школа №7,51.2842828,37.8388735,Belgorod,ЦФО,5,Кластер 6,116.280947122545,497.42446241098435,1,111303,546,1549,67
902481037,Управление образования,51.2965474,37.8329581,Belgorod,ЦФО,5,Кластер 6,116.86344310520212,496.0498944220671,1,111303,546,1549,67
902604140,ДХШ,51.2972941,37.840039,Belgorod,ЦФО,5,Кластер 6,117.28867208124788,495.9805055570115,1,111303,546,1549,67
902604176,Коррекционная общеобразовательная школа №23,51.3009196,37.8372856,Belgorod,ЦФО,5,Кластер 6,117.410298199541,495.57217927706654,1,111303,546,1549,67
903727927,Средняя общеобразовательная школа №8,51.302792,37.8317272,Belgorod,ЦФО,5,Кластер 6,117.25829765865818,495.3534601892133,1,111303,546,1549,67
903727953,ЦДЮТ №1,51.2942361,37.8401237,Belgorod,ЦФО,5,Кластер 6,117.06982366937378,496.3205709056173,1,111303,546,1549,67
905075974,ЦДЮТ,51.3116338,37.8286913,Belgorod,ЦФО,5,Кластер 6,117.75539690821822,494.3649740031347,1,111303,546,1549,67
907908287,МОУ СОШ №17,56.3479471,41.2792685,Vladimir,ЦФО,5,Кластер 6,59.2008692484105,236.68341742297375,1,95550,353,1378,78
907908320,Школа №7,56.3540085,41.3080513,Vladimir,ЦФО,5,Кластер 6,61.09535428213842,238.56959459861815,1,51614,353,1378,78
910336544,Средняя общеобразовательная школа №16,51.309235,37.8853308,Belgorod,ЦФО,5,Кластер 6,120.5390911713334,494.75095385518495,1,159502,546,1549,67
910336606,Средняя общеобразовательная школа №17,51.3099318,37.8864974,Belgorod,ЦФО,5,Кластер 6,120.65107908812008,494.6762726079635,1,159502,546,1549,67
910567634,Средняя общеобразовательная школа №6,51.3127435,37.8899467,Belgorod,ЦФО,5,Кластер 6,121.03655724033324,494.37202716422536,1,159502,546,1549,67
910567838,Средняя общеобразовательная школа №20,51.3049393,37.8917593,Belgorod,ЦФО,5,Кластер 6,120.56971377320568,495.2436533973061,1,159502,546,1549,67
910567932,Школа искусств №2,51.3080814,37.8976349,Belgorod,ЦФО,5,Кластер 6,121.10719189270053,494.90880111643054,1,159502,546,1549,67
910567952,Гимназия №18,51.3071993,37.8962745,Belgorod,ЦФО,5,Кластер 6,120.97164330843302,495.0034818970435,1,159502,546,1549,67
910568440,Средняя общеобразовательная школа №22,51.3051017,37.8961379,Belgorod,ЦФО,5,Кластер 6,120.81383730452944,495.2362447915014,1,159502,546,1549,67
911713061,Средняя общеобразовательная школа №30,51.3108118,37.9056535,Belgorod,ЦФО,5,Кластер 6,121.72884095542982,494.6254328692415,1,159502,546,1549,67
911713066,Средняя общеобразовательная школа №34,51.3104989,37.9069797,Belgorod,ЦФО,5,Кластер 6,121.77685060510672,494.6635725283166,1,159502,546,1549,67
911953954,Начальная общеобразовательная школа №31,51.3143939,37.8976417,Belgorod,ЦФО,5,Кластер 6,121.56223756137216,494.2073414947836,1,159502,546,1549,67
912745192,Линецкая щкола,52.0869214,35.5253586,Kursk,ЦФО,5,Кластер 6,60.60220586349181,430.30002850786207,1,12529,417,1105,68
912745246,Михайловская средняя школа,52.2336909,35.3703595,Kursk,ЦФО,5,Кластер 6,79.44097336902678,418.2265307686416,1,6238,417,1105,68
916422941,Касиновская средняя школа,51.8025197,36.1409011,Kursk,ЦФО,5,Кластер 6,8.824902489590139,450.1376354528392,1,79798,417,1105,68
918472110,"Центр детского творчества ""Солнцево""",55.64866,37.393593,MoscowCity,ЦФО,2,Кластер 3,18.089434494484475,18.41009237409788,1,1037432,1848,12655,100
925697811,СОШ,50.4999227,35.6688151,Belgorod,ЦФО,5,Кластер 6,65.83649742710331,598.6524983550739,1,27882,546,1549,67
925780512,школа №1007,55.6488818,37.3987263,MoscowCity,ЦФО,2,Кластер 3,17.824791488950424,18.14987470645997,1,1037432,1848,12655,100
934868530,Школа №19,55.8832759,38.4431683,Moskva,ЦФО,7,Кластер 8,53.60785358169193,53.48490957410975,1,133367,579,8524,81
936400924,Тазовская начальная школа,51.9270985,36.3058887,Kursk,ЦФО,5,Кластер 6,23.248845974129846,434.32178926031105,1,1606,417,1105,68
936948496,Первопоныровская,52.3187949,36.2600687,Kursk,ЦФО,5,Кластер 6,65.63162068067076,392.3033617275775,1,0,417,1105,68
939406916,МОУ №26,55.8542702,38.6278423,Moskva,ЦФО,7,Кластер 8,64.14725407445111,64.07466270055801,1,126476,579,8524,81
942403371,Курская дорожная техническая школа,51.7487371,36.2344933,Kursk,ЦФО,5,Кластер 6,3.53606118049129,454.7251847377823,1,134431,417,1105,68
946578769,Школа №15,55.4160213,37.5353775,Moskva,ЦФО,7,Кластер 8,37.608130200689914,38.13336738143795,1,377617,579,8524,81
954912765,Школа №1,55.6890655,37.5378735,MoscowCity,ЦФО,2,Кластер 3,8.521201540836644,8.943899757775954,1,1798038,1848,12655,100
958512313,СШ,51.2653639,37.9302196,Belgorod,ЦФО,5,Кластер 6,119.87707028533757,499.7400240998759,1,159502,546,1549,67
962966896,Сергиево–Посадский физико–математический лицей,56.3118382,38.1360082,Moskva,ЦФО,7,Кластер 8,70.17662296783229,69.71330894743045,1,115271,579,8524,81
964769592,Бывшая школа №37,51.3090651,37.8441364,Belgorod,ЦФО,5,Кластер 6,118.36655751735437,494.6802434052628,1,111303,546,1549,67
969787130,"Станция юных талантов ""Солнцево""",55.644486,37.410415,Moskva,ЦФО,7,Кластер 8,17.592355008833454,17.937294409471555,1,1037432,579,8524,81
975670384,Брайт,51.3092885,37.9168208,Belgorod,ЦФО,5,Кластер 6,122.21426708659364,494.8235557054855,1,159502,546,1549,67
975690904,Средняя общеобразовательная школа №24,51.3086928,37.8798182,Belgorod,ЦФО,5,Кластер 6,120.20897808192603,494.7983564951005,1,159502,546,1549,67
988572990,2-тербунская школа-интернат,52.1177,38.4832653,Lipetsk,ЦФО,5,Кластер 6,93.39149741819097,408.4787304221307,1,5874,487,1157,65
988573036,2-тербунская средняя школа,52.1180162,38.4892734,Lipetsk,ЦФО,5,Кластер 6,93.03977317986694,408.49850368866913,1,5874,487,1157,65
989162414,БНСШ№3,55.2176612,36.5431576,Kaluga,ЦФО,5,Кластер 6,81.18887604266335,90.347100604665,1,33539,519,1010,76
1007381830,Алабинская средняя общеобразовательная школа,55.5676932,36.9940203,Moskva,ЦФО,7,Кластер 8,44.1291002080315,44.353904622818035,1,470323,579,8524,81
1012167223,Духовщинская средняя школа,55.1983422,32.414423,Smolensk,ЦФО,5,Кластер 6,51.9483462148794,333.6178345695442,1,585,346,944,73
1013879417,Московская международная гимназия,55.755926,37.8012033,MoscowCity,ЦФО,2,Кластер 3,11.477112305091328,11.48836606567292,1,943444,1848,12655,100
1025311181,МБОУ СОШ №5,57.0339471,34.9732897,Tver',ЦФО,5,Кластер 6,60.16232224388266,216.03436574408988,1,30987,352,1271,74
1025589865,Песоченская средняя школа,54.1078942,40.8241892,Ryazan',ЦФО,5,Кластер 6,90.99855188175248,274.80189129180815,1,2301,394,1099,72
1025607828,Ильинская средняя школа,55.2469958,37.9615178,Moskva,ЦФО,7,Кластер 8,60.07387769432163,60.580630191842744,1,11375,579,8524,81
1025607841,Ильинская начальная школа,55.2470818,37.9624291,Moskva,ЦФО,7,Кластер 8,60.085645647717605,60.59223681268183,1,11375,579,8524,81
1030411628,Школа №10,51.2601322,37.533584,Belgorod,ЦФО,5,Кластер 6,99.13966152523396,499.92622183599315,1,31102,546,1549,67
1031496762,Школа №3,50.7736306,37.8669208,Belgorod,ЦФО,5,Кластер 6,92.21548860567542,554.2390646066543,1,93908,546,1549,67
1031503152,Школа №2,50.7597023,37.8619023,Belgorod,ЦФО,5,Кластер 6,91.56457585190326,555.7773863436665,1,93908,546,1549,67
1031656932,Школа №4,50.7485543,37.8902557,Belgorod,ЦФО,5,Кластер 6,93.30263590456312,557.0745105145243,1,30646,546,1549,67
1033650451,Детская школа исскуств №5,51.7592631,36.1833841,Kursk,ЦФО,5,Кластер 6,3.320574278864136,454.259796879086,1,95660,417,1105,68
1037385463,СОШ №2,52.9468889,39.8334998,Lipetsk,ЦФО,5,Кластер 6,40.82474716890524,343.72399955953387,1,14074,487,1157,65
1041888123,Вечерняя школа №12,51.6726119,36.1470674,Kursk,ЦФО,5,Кластер 6,7.123228405566083,464.1996184580241,1,155132,417,1105,68
1045574513,Краснозоренская средняя общеобразовательная школа,52.7830866,37.6856846,Orel,ЦФО,5,Кластер 6,110.32204219601212,330.58016766478744,1,12706,313,748,65
1073675313,Средняя общеобразовательная школа №19,51.280606,37.7970094,Belgorod,ЦФО,5,Кластер 6,113.81563145138836,497.7597451341449,1,111303,546,1549,67
1083674935,Детская школа искусств №1 им. Г.В. Свиридова,51.7463433,36.1949961,Kursk,ЦФО,5,Кластер 6,1.8224824415605425,455.5111939872459,1,134431,417,1105,68
1086142853,Детская школа искусств №7,51.7411791,36.1355521,Kursk,ЦФО,5,Кластер 6,4.146683222618921,456.8897667047651,1,155132,417,1105,68
1088927940,гимназия № 16 города Орла,52.9332326,36.0392014,Orel,ЦФО,5,Кластер 6,4.1872721601554606,330.0860432871326,1,92911,313,748,65
1095521099,Лицей №18,53.0160466,36.1432269,Orel,ЦФО,5,Кластер 6,7.415584459936421,319.2357133629992,1,158250,313,748,65
1095521940,Школа №13,53.0170262,36.1441486,Orel,ЦФО,5,Кластер 6,7.538108418047344,319.11361529351177,1,158250,313,748,65
1097724066,Школа № 9,54.4829966,36.9899929,Tula,ЦФО,5,Кластер 6,51.8840343028696,147.04682780837194,1,4956,449,1502,81
1102303031,Гимназия Малоярославца,55.0019136,36.4583848,Kaluga,ЦФО,5,Кластер 6,56.602899417357136,111.30883247041952,1,155508,519,1010,76
1108941991,Школа №13,55.6079374,40.6581615,Vladimir,ЦФО,5,Кластер 6,60.03739285980342,191.30590572064625,1,24365,353,1378,78
1109168728,Дросковская средняя общеобразовательная школа,52.4899002,37.0735001,Orel,ЦФО,5,Кластер 6,85.84186651867822,364.87515508576377,1,16347,313,748,65
1112538563,Школа №46,53.0076564,36.1370622,Orel,ЦФО,5,Кластер 6,6.450361118876229,320.2480696176288,1,158250,313,748,65
1113911408,Школа №20,53.0104092,36.1427765,Orel,ЦФО,5,Кластер 6,6.936539241034126,319.84454829510156,1,158250,313,748,65
1116494773,Церковно-приходская школа «Косинская»,55.7189918,37.858583,MoscowCity,ЦФО,2,Кластер 3,15.476527681731666,15.631188299001664,1,1705184,1848,12655,100
1117468605,Школа № 37,53.0115422,36.1331289,Orel,ЦФО,5,Кластер 6,6.5954886661643775,319.91083208481643,1,158250,313,748,65
1118022995,Большескуратовская средняя школа,53.4403609,36.8388661,Tula,ЦФО,5,Кластер 6,98.04595200882272,262.3017291227813,1,19656,449,1502,81
1118023812,Чернская средняя школа №2,53.4306465,36.7903392,Tula,ЦФО,5,Кластер 6,100.65392876261022,263.97596929926226,1,19656,449,1502,81
1118893682,Новоснопковская средняя (девятилетняя) школа,55.7751214,39.1569602,Moskva,ЦФО,7,Кластер 8,96.312874265799,96.31858052813465,1,424,579,8524,81
1120504710,Детская школа искусств №4,51.7263677,36.1853466,Kursk,ЦФО,5,Кластер 6,0.6640635253027181,457.81947454746154,1,134431,417,1105,68
1120829950,Школа №45 им. Д. Блынского,53.0000866,36.1287237,Orel,ЦФО,5,Кластер 6,5.460847956306344,321.215349298788,1,158250,313,748,65
1120942084,Школа № 30,52.9826137,36.1232557,Orel,ЦФО,5,Кластер 6,4.016038876836586,323.18094202914824,1,158250,313,748,65
1121424925,Школа №16,55.419986,37.538772,Moskva,ЦФО,7,Кластер 8,37.14231373458789,37.66794575431629,1,377617,579,8524,81
1123393353,58,53.1364894,38.1114075,Tula,ЦФО,5,Кластер 6,121.91004989441096,292.9967215133854,1,126139,449,1502,81
1126728874,Школа № 11,54.5046365,37.0693524,Tula,ЦФО,5,Кластер 6,49.60354454820709,143.4210451365049,1,34216,449,1502,81
1132132935,Гимназия №44,51.7468805,36.1971951,Kursk,ЦФО,5,Кластер 6,1.899123338652284,455.42302535752486,1,134431,417,1105,68
1136482768,Лицей №4,52.9719246,36.0817385,Orel,ЦФО,5,Кластер 6,1.025639695633261,325.13072826321735,1,158250,313,748,65
1136509941,Православная гимназия (начальная школа),54.79065,32.0516,Smolensk,ЦФО,5,Кластер 6,1.050813587564739,368.4244507031449,1,103639,346,944,73
1137685409,Школа №26,52.9591168,36.0730433,Orel,ЦФО,5,Кластер 6,0.792053465570984,326.6634159973223,1,158250,313,748,65
1137955811,Школа №48,52.9687589,36.0851891,Orel,ЦФО,5,Кластер 6,1.0624569931652514,325.3988335146261,1,158250,313,748,65
1140398614,Владимировская средняя школа,51.0607192,36.2729485,Belgorod,ЦФО,5,Кластер 6,56.11045813433382,529.59546620159,1,15420,546,1549,67
1142049093,Музучилище,51.2793494,37.5510562,Belgorod,ЦФО,5,Кластер 6,101.53944137185267,497.77797400943746,1,207950,546,1549,67
1142158796,Школа №1362,55.7898108,37.7410624,MoscowCity,ЦФО,2,Кластер 3,8.824578856996993,8.598242631403211,1,1675115,1848,12655,100
1143677828,Детская школа искусств № 9,51.5927857,39.244228,Voronezh,ЦФО,5,Кластер 6,9.73984554784785,475.1088045818506,1,160112,432,2333,66
1145277220,Школа № 1195,55.7172298,37.4197645,MoscowCity,ЦФО,2,Кластер 3,12.966469545730222,13.106593584450936,1,1835205,1848,12655,100
1145370005,Средняя школа №72,55.7475855,37.4985787,MoscowCity,ЦФО,2,Кластер 3,7.483283105287138,7.503953511745066,1,1798038,1848,12655,100
1146608988,Знаменская средняя школа,52.8962369,35.9853137,Orel,ЦФО,5,Кластер 6,9.612194963068395,335.0991396389237,1,92911,313,748,65
1146609252,Начальная школа,52.8959985,35.9835107,Orel,ЦФО,5,Кластер 6,9.705305023715834,335.1612769001564,1,92911,313,748,65
1165942860,Центр образования №1473 им. Г. А. Тарана,55.6129542,37.2888866,Moskva,ЦФО,7,Кластер 8,25.71587127147796,26.01711459280026,1,577557,579,8524,81
1174155140,Лицей №32,52.9679965,36.0905193,Orel,ЦФО,5,Кластер 6,1.3919926132205498,325.3748176095646,1,158250,313,748,65
1177049796,Школа № 27,52.9621714,36.0781936,Orel,ЦФО,5,Кластер 6,0.6945341322136153,326.23695465835027,1,158250,313,748,65
1178926448,Сократ,55.6762487,37.3904971,Moskva,ЦФО,7,Кластер 8,16.49755171877063,16.7507756778544,1,1835205,579,8524,81
1191292958,Глазуновская школа,52.5015767,36.3269353,Orel,ЦФО,5,Кластер 6,54.46202883429705,371.4790444184406,1,11832,313,748,65
1192496379,Школа надомного обучения №381,55.8047269,37.7928053,MoscowCity,ЦФО,2,Кластер 3,12.457615314281094,12.232438927404276,1,943444,1848,12655,100
1200573868,Детская школа искуссств №1,50.6027515,36.6029212,Belgorod,ЦФО,5,Кластер 6,1.2321027458527207,576.951852822529,1,285195,546,1549,67
1200949989,Смотровобудская СОШ,52.6795045,32.2896878,Bryansk,ЦФО,5,Кластер 6,152.40280490884686,486.57296535519527,1,12142,329,1196,71
1205056572,Школа № 3,55.6654493,37.2851663,Moskva,ЦФО,7,Кластер 8,22.91881667610497,23.121719638024565,1,688662,579,8524,81
1210809193,Школа №14,56.856028,37.370271,Tver',ЦФО,5,Кластер 6,88.65134976884164,123.28720386040058,1,27667,352,1271,74
1210871227,Школа №13,56.8751649,37.3585098,Tver',ЦФО,5,Кластер 6,87.93165610115094,125.48884949241472,1,27667,352,1271,74
1211681702,Школа глиняной игрушки,54.513669,36.2674895,Kaluga,ЦФО,5,Кластер 6,1.2448918564731206,162.60185840198434,1,550481,519,1010,76
1212027493,Школа №384,55.7090604,37.3977818,Moskva,ЦФО,7,Кластер 8,14.555809468553562,14.711262107518516,1,1835205,579,8524,81
1212027496,Школа №383,55.7084309,37.3974133,Moskva,ЦФО,7,Кластер 8,14.600316352917115,14.75778966300136,1,1835205,579,8524,81
1213668209,Лицей №28,52.9388418,36.0381282,Orel,ЦФО,5,Кластер 6,3.6984422785531943,329.51254408910273,1,92911,313,748,65
1228429192,Средняя школа № 18,53.282836,34.2841994,Bryansk,ЦФО,5,Кластер 6,6.913135575717263,349.05805272667664,1,107528,329,1196,71
1230867369,Открытая сменная общеобразовательная школа №11,51.671816,39.1993809,Voronezh,ЦФО,5,Кластер 6,1.060849729600426,465.86279037890887,1,302771,432,2333,66
1234647304,Вечерняя (сменная) общеобразовательная школа №1,54.0020572,37.5102429,Tula,ЦФО,5,Кластер 6,22.343895247733524,195.12813188398545,1,66447,449,1502,81
1237150651,"Школа исскуств при ДК ""Воскресенское""",55.5299173,37.4450512,Moskva,ЦФО,7,Кластер 8,26.87264070011121,27.351543630161245,1,208162,579,8524,81
1247524343,Болховская гимназия,53.4518818,36.0044871,Orel,ЦФО,5,Кластер 6,54.203448983363735,276.4308683308124,1,2529,313,748,65
1248151531,Школа-интернат № 1,55.8073251,38.1770671,Moskva,ЦФО,7,Кластер 8,35.51731372200518,35.44965114439027,1,497609,579,8524,81
1254891776,Школа №2,50.6320261,38.7020182,Belgorod,ЦФО,5,Кластер 6,149.2046534124418,574.2800950500077,1,147735,546,1549,67
1293149768,Заболотовская СШ №3,50.2814031,39.3186968,Voronezh,ЦФО,5,Кластер 6,154.91454768518938,619.2180817526842,1,11481,432,2333,66
1296956842,Школа №3,52.5710113,34.5759291,Bryansk,ЦФО,5,Кластер 6,76.06129054858296,405.64375204860886,1,16011,329,1196,71
1296970258,Школа №1,52.5615715,34.5647765,Bryansk,ЦФО,5,Кластер 6,76.95860183675083,406.9244162766165,1,16011,329,1196,71
1300887673,Школа № 10,52.9346667,36.0897839,Orel,ЦФО,5,Кластер 6,3.7277021380468423,328.93353110227486,1,77295,313,748,65
1304995557,СОШ №1,52.9543094,39.8284208,Lipetsk,ЦФО,5,Кластер 6,41.459278124628426,342.83173208381174,1,13113,487,1157,65
1305925434,ВКС-International House,55.9959905,37.2089259,MoscowCity,ЦФО,2,Кластер 3,37.327333335639,36.9212943935392,1,495963,1848,12655,100
1306432225,Воронежская кадетская школа им. Суворова,51.733451,39.3551049,Voronezh,ЦФО,5,Кластер 6,13.628014137536464,461.58905677506897,1,27137,432,2333,66
1307707111,ТГМПИ им. С.В. Рахманинова,52.7210976,41.4469645,Tambov,ЦФО,5,Кластер 6,0.3393162166867761,419.14123099164834,1,87586,339,1027,61
1307913748,Светлана,51.6751402,39.2155127,Voronezh,ЦФО,5,Кластер 6,2.2008815597200697,465.7394491968558,1,302771,432,2333,66
1319878783,БСОШ,55.8266877,32.9382898,Tver',ЦФО,5,Кластер 6,216.2132767379883,292.5769378523161,1,3095,352,1271,74
1322112008,МОУСОШ №3,50.6205662,38.6749034,Belgorod,ЦФО,5,Кластер 6,147.2821202758232,575.3224136156726,1,147735,546,1549,67
1327996469,"Образовательный центр ""Нива""",56.3041838,38.1309582,Moskva,ЦФО,7,Кластер 8,69.27794537711837,68.8150891076474,1,115271,579,8524,81
1332091456,Муниципальное казенное общеобразовательное учреждение Лосевская средняя общеобразовательная школа №2,50.6760671,40.0198878,Voronezh,ЦФО,5,Кластер 6,125.13679890750514,586.9587993020823,1,73396,432,2333,66
1352412610,Детско-Юношеская Спортивная Школа № 1,54.7779587,32.0264347,Smolensk,ЦФО,5,Кластер 6,1.2725415379664764,370.41350466326054,1,56827,346,944,73
1357105754,Гостомльская школа,52.5521196,35.7549679,Orel,ЦФО,5,Кластер 6,50.669073658770735,376.27936252151744,1,27839,313,748,65
1368707701,Школа №3,55.5466375,34.9902756,Smolensk,ЦФО,5,Кластер 6,205.46906329387025,166.45909928063134,1,26367,346,944,73
1370265722,Средняя школа,53.1999196,40.2345478,Tambov,ЦФО,5,Кластер 6,97.3915468428815,330.63461922464444,1,1355,339,1027,61
1371877038,Детская школа искусств,51.0767573,38.6409322,Voronezh,ЦФО,5,Кластер 6,76.16873243447357,524.6713769301364,1,13655,432,2333,66
1373666635,"Школа № 7, филиал № 1",55.6791957,37.5253409,MoscowCity,ЦФО,2,Кластер 3,9.870853073195043,10.293069834488197,1,1798038,1848,12655,100
1373669735,Н.ш. - д.с. № 1708,55.6853591,37.5386444,MoscowCity,ЦФО,2,Кластер 3,8.830480594563413,9.262950338969327,1,1798038,1848,12655,100
1373694629,Школа №7 (филиал №2),55.6829241,37.5270539,MoscowCity,ЦФО,2,Кластер 3,9.473559329240036,9.89064590687454,1,1798038,1848,12655,100
1373694630,Школа №119,55.6798473,37.5213993,MoscowCity,ЦФО,2,Кластер 3,9.960330445684008,10.374567973447538,1,1798038,1848,12655,100
1373755234,"СААШ ""Марина""",55.6763945,37.5207685,MoscowCity,ЦФО,2,Кластер 3,10.291442847152046,10.711911426975083,1,1798038,1848,12655,100
1373756113,Школа 1181 (для пациентов больницы),55.6510947,37.4931563,MoscowCity,ЦФО,2,Кластер 3,13.58686080726325,14.01239374064552,1,1798038,1848,12655,100
1373776071,"Лицей №1525 ""Воробьевы горы""",55.7029962,37.5544024,MoscowCity,ЦФО,2,Кластер 3,6.659654446365754,7.080466406220007,1,2373579,1848,12655,100
1373778976,Школа № 1318 (киношкола),55.6870452,37.5298416,MoscowCity,ЦФО,2,Кластер 3,9.003267372293218,9.415690516451775,1,1798038,1848,12655,100
1373825239,"Центр дополнительного образования детей ""Диалог наук""",55.6950395,37.5518003,MoscowCity,ЦФО,2,Кластер 3,7.477079287716409,7.913582923787275,1,2373579,1848,12655,100
1374506143,"Школа ""Промо-М""",55.643379,37.47992,MoscowCity,ЦФО,2,Кластер 3,14.767503540794342,15.188681604397551,1,1517501,1848,12655,100
1374667858,"Лингвистический центр ""Маленький принц""",55.5603501,37.5854943,MoscowCity,ЦФО,2,Кластер 3,21.297148209363016,21.82615028865116,1,2160419,1848,12655,100
1374741490,"ДООЦ ""Юго-Западный""",55.6085997,37.5287946,MoscowCity,ЦФО,2,Кластер 3,16.792818625856153,17.288796855570208,1,1517501,1848,12655,100
1374741494,"Лингвистический центр ""Маленький принц""",55.6018739,37.5452392,MoscowCity,ЦФО,2,Кластер 3,17.198166577627003,17.706833637130575,1,1517501,1848,12655,100
1374741534,"Школа ""Ясенево""",55.5950379,37.5381405,MoscowCity,ЦФО,2,Кластер 3,18.050682293814855,18.557227177049093,1,1517501,1848,12655,100
1375274507,ЦБИ,55.9312083,37.8449951,Moskva,ЦФО,7,Кластер 8,24.54357143412567,24.123954826423756,1,870849,579,8524,81
1384531520,Подготовительная школа Ритм,51.7365563,36.1387546,Kursk,ЦФО,5,Кластер 6,3.80611308310496,457.34839698489736,1,155132,417,1105,68
1391103873,Петровская средняя школа,50.5213796,40.2542505,Voronezh,ЦФО,5,Кластер 6,148.16854141142895,607.9174941448703,1,8836,432,2333,66
1393596522,Школа №2,53.0097243,39.1336464,Lipetsk,ЦФО,5,Кластер 6,54.570256902307094,320.7233701472995,1,9699,487,1157,65
1393833326,Школа,53.0440434,39.419617,Lipetsk,ЦФО,5,Кластер 6,49.97753741178995,323.28004056349835,1,761,487,1157,65
1412082005,АВС,52.5912671,39.5604522,Lipetsk,ЦФО,5,Кластер 6,3.2551412698194135,373.8733474527102,1,256018,487,1157,65
1414440730,Букреевская начальная школа,51.6675556,36.3054437,Kursk,ЦФО,5,Кластер 6,10.40507219850866,462.6985067422081,1,43662,417,1105,68
1417237115,Радуга,51.7107044,39.154876,Voronezh,ЦФО,5,Кластер 6,4.74891335389491,460.98925728377793,1,302771,432,2333,66
1422483197,Детско-юношеская спортивная школа,51.4167483,36.1115417,Kursk,ЦФО,5,Кластер 6,35.283976724673266,492.583627897456,1,16790,417,1105,68
1422483216,Медвенская средняя школа,51.4193904,36.1152823,Kursk,ЦФО,5,Кластер 6,34.95330478938534,492.2456425032287,1,16790,417,1105,68
1422752925,Воскресная школа Казанского храма,55.736354,38.5562774,Moskva,ЦФО,7,Кластер 8,58.75003099732459,58.78865495680514,1,14810,579,8524,81
1423407468,Девицкая средняя школа,51.6373724,38.9473159,Voronezh,ЦФО,5,Кластер 6,16.775571002606082,466.2168188794932,1,51350,432,2333,66
1423513449,Церковно приходская школа,50.1990883,39.535702,Voronezh,ЦФО,5,Кластер 6,165.6236507989583,631.0182311887974,1,38467,432,2333,66
1425992505,Детская школа искусств № 6,51.6839293,39.1881491,Voronezh,ЦФО,5,Кластер 6,1.356976257405112,464.38219364998616,1,302771,432,2333,66
1426996766,"Православная школа во имя иконы божией Матери ""Скоропослушница""",55.5899136,37.6517472,MoscowCity,ЦФО,2,Кластер 3,18.03656975768809,18.569585023036012,1,1730772,1848,12655,100
1427761506,"Государственное бюджетное образовательное учреждение города Москвы центр лечебной педагогики и дифференцированного обучения ""Возрождение""",55.6632193,37.6485723,MoscowCity,ЦФО,2,Кластер 3,9.946917140612776,10.475759463470595,1,2373579,1848,12655,100
1427798459,"ННОУ ""Эрудит""",55.6793447,37.6545815,MoscowCity,ЦФО,2,Кластер 3,8.290634813683756,8.811332632622419,1,2868861,1848,12655,100
1427798462,Негосударственное образовательное учреждение русская гуманитарная школа,55.6655864,37.6431838,MoscowCity,ЦФО,2,Кластер 3,9.627710124722444,10.158515237748595,1,2373579,1848,12655,100
1428214514,"Школа ""ЭПОС""",55.68292,37.7049666,MoscowCity,ЦФО,2,Кластер 3,9.326184669445974,9.778210169358523,1,2868861,1848,12655,100
1429235509,"ЦПМСС ""Взаимодействие""",55.6603447,37.6252917,MoscowCity,ЦФО,2,Кластер 3,10.090756036373705,10.62507769045536,1,2373579,1848,12655,100
1429379251,"ЦДТ ""Логос""",55.7098599,37.6427218,MoscowCity,ЦФО,2,Кластер 3,4.829354419055085,5.344961845640836,1,2373579,1848,12655,100
1430522302,"АНО СОШ ""Учебный центр Перспектива""",55.6374278,37.6143473,MoscowCity,ЦФО,2,Кластер 3,12.6307270307096,13.163966322245406,1,2160419,1848,12655,100
1430544663,Ювенес,55.8393316,37.403236,MoscowCity,ЦФО,2,Кластер 3,16.634045296504404,16.303337409454617,1,1390456,1848,12655,100
1430546453,Школа №435,55.7746135,37.7048526,MoscowCity,ЦФО,2,Кластер 3,6.034706854840424,5.845391284222451,1,1675115,1848,12655,100
1430690773,Ассист,51.6655851,39.263302,Voronezh,ЦФО,5,Кластер 6,5.515288393373189,467.49372683700983,1,384537,432,2333,66
1430715273,Вечерняя сменная общеобразовательная школа №1,51.701011,39.2710043,Voronezh,ЦФО,5,Кластер 6,6.810277868061613,463.77049376202046,1,384537,432,2333,66
1430804068,Школа №1113,55.7691104,37.6030203,MoscowCity,ЦФО,2,Кластер 3,2.2211886972740356,1.7385369602285965,1,2335731,1848,12655,100
1431995434,СШ №8,50.2765874,39.3035305,Voronezh,ЦФО,5,Кластер 6,155.3882772130738,619.5610064623734,1,11481,432,2333,66
1432412139,Школа № 46,51.7311386,39.1608398,Voronezh,ЦФО,5,Кластер 6,6.76683288023815,458.853752800547,1,302771,432,2333,66
1433217073,Школа № 73 им. А.Ф. Чернонога,51.6488188,39.1458938,Voronezh,ЦФО,5,Кластер 6,3.681420187642156,467.5939301186206,1,91012,432,2333,66
1433217074,Школа № 75,51.6493643,39.1435494,Voronezh,ЦФО,5,Кластер 6,3.757654734935496,467.5014724997957,1,91012,432,2333,66
1443307436,Школа №654 имени А. Д. Фридмана. Учебный корпус №4,55.694833,37.7362385,MoscowCity,ЦФО,2,Кластер 3,9.68682245400542,10.057389548497252,1,2868861,1848,12655,100
1444312785,Детская школа искусств № 11 имени М.И. Носырева,51.658088,39.1902195,Voronezh,ЦФО,5,Кластер 6,1.605315642587636,467.22091705303495,1,302771,432,2333,66
1444336998,Детская школа искусств № 5,51.7006044,39.2718928,Voronezh,ЦФО,5,Кластер 6,6.843175389380457,463.8282363350762,1,384537,432,2333,66
1444523094,Лозолик,51.6709728,39.1874453,Voronezh,ЦФО,5,Кластер 6,0.2636163790905985,465.780066331021,1,302771,432,2333,66
1444803462,"Центр психолого-педагогической реабилитации и коррекции ""Восточный""",55.7820621,37.7276916,MoscowCity,ЦФО,2,Кластер 3,7.6819760275083135,7.479893928812756,1,1675115,1848,12655,100
1458505430,Залегощенская средняя школа №1,52.8933688,36.8875511,Orel,ЦФО,5,Кластер 6,55.39020336734568,321.7844476260011,1,11628,313,748,65
1461796699,Школа № 1,56.4376104,38.2458711,Moskva,ЦФО,7,Кластер 8,85.70615555237795,85.24128524221832,1,161892,579,8524,81
1461888512,Школа №3,54.9849803,33.3365536,Smolensk,ЦФО,5,Кластер 6,85.63906372267573,283.7126444763331,1,3560,346,944,73
1461888538,Школа №2,54.9818865,33.3411383,Smolensk,ЦФО,5,Кластер 6,85.83533023659137,283.5508112498813,1,3560,346,944,73
1462974682,Школа №1,54.9838846,33.3504443,Smolensk,ЦФО,5,Кластер 6,86.46581843407563,282.91694444407966,1,3672,346,944,73
1468409421,В-Карабутская основная общеобразовательная школа,50.557833,39.9152689,Voronezh,ЦФО,5,Кластер 6,133.99181155843317,597.8587698530556,1,35,432,2333,66
1468409539,Школа,50.4917702,40.0014498,Voronezh,ЦФО,5,Кластер 6,143.11784353900043,606.4670638346513,1,19446,432,2333,66
1474298562,Школа №4,50.6329279,38.6600596,Belgorod,ЦФО,5,Кластер 6,146.24680619177946,573.8370241103233,1,147735,546,1549,67
1474311826,Школа №5,50.6299345,38.6924777,Belgorod,ЦФО,5,Кластер 6,148.529187683217,574.4318013462102,1,147735,546,1549,67
1474312067,Школа №6,50.6229239,38.711671,Belgorod,ЦФО,5,Кластер 6,149.87704179388325,575.3658915652252,1,147735,546,1549,67
1474820764,Внуковская школа,56.3576393,37.5676308,Moskva,ЦФО,7,Кластер 8,67.52767134299116,66.99334931873557,1,32654,579,8524,81
1485582354,Росинка,53.4541185,36.9140502,Tula,ЦФО,5,Кластер 6,94.22731599002084,259.9118177575396,1,19853,449,1502,81
1485582358,Архангельская ОСШ №1,53.3305338,37.1125675,Tula,ЦФО,5,Кластер 6,101.4713954075488,271.63568857613336,1,0,449,1502,81
1504721393,Православная гимназия,56.7553242,38.8691336,Yaroslavl',ЦФО,5,Кластер 6,114.79493608513988,135.37784350992283,1,65974,442,1255,81
1504721395,Центр детского технического творчества,56.7554051,38.870133,Yaroslavl',ЦФО,5,Кластер 6,114.7549712706232,135.42042988556085,1,65974,442,1255,81
1541136926,Школа №1,52.6281951,38.4995803,Lipetsk,ЦФО,5,Кластер 6,74.3216704674975,352.46756059437524,1,140080,487,1157,65
1546349119,Школа №10,52.6051335,38.4736536,Lipetsk,ЦФО,5,Кластер 6,76.05867383670014,354.7320591660716,1,140080,487,1157,65
1546349123,Корпус № 3 средней школы № 1,52.6245567,38.4866855,Lipetsk,ЦФО,5,Кластер 6,75.18389791358517,352.73192318074945,1,140080,487,1157,65
1553405237,Школа №15,52.617067,38.498918,Lipetsk,ЦФО,5,Кластер 6,74.34873343783305,353.6827485671724,1,140080,487,1157,65
1556998028,Школа №1 (МОУПСОШсУИОП),50.4601626,40.0974124,Voronezh,ЦФО,5,Кластер 6,149.0992681819237,611.5686503591353,1,196733,432,2333,66
1560232958,Центр образования № 118,55.6869036,37.5295957,MoscowCity,ЦФО,2,Кластер 3,9.025155487239036,9.437470536114452,1,1798038,1848,12655,100
1562740693,Центр развития и творчества детей и юношества «Романтик»,56.7492634,38.8819132,Yaroslavl',ЦФО,5,Кластер 6,114.95668354522203,135.2827624215312,1,69787,442,1255,81
1573195137,Школа № 23,52.955586,36.0624539,Orel,ЦФО,5,Кластер 6,1.263483525977919,327.2488017823741,1,158250,313,748,65
1574133742,Хотынецкая средняя общеобразовательная школа,53.1237031,35.4059281,Orel,ЦФО,5,Кластер 6,47.730428529476576,325.7110543245441,1,2664,313,748,65
1588932818,"Центр образования ""Измайлово"" № 1811",55.7939167,37.8147527,MoscowCity,ЦФО,2,Кластер 3,13.19879480659432,13.038274733325938,1,943444,1848,12655,100
1591412671,"НОУ ""Тверская епархиальная православная средняя общеобразовательная школа во имя свт. Тихона Задонского""",56.8495799,35.8644373,Tver',ЦФО,5,Кластер 6,3.075586431910267,162.74608206865088,1,324268,352,1271,74
1599070523,МОУ Волчанская ООШ,50.7729667,39.5274333,Voronezh,ЦФО,5,Кластер 6,102.78885796376343,568.3810175216651,1,128,432,2333,66
1599296100,Школа № 1208 имени Героя Советского Союза М.С. Шумилова. Корпус № 1,55.7077593,37.7712348,MoscowCity,ЦФО,2,Кластер 3,10.731997282545883,11.002865484504277,1,2146742,1848,12655,100
1601493200,Православная гимназия,54.0374488,35.7895412,Kaluga,ЦФО,5,Кластер 6,60.230302834038206,223.97346875891253,1,24802,519,1010,76
1603692724,Искусство жизни,55.6411562,37.5225154,MoscowCity,ЦФО,2,Кластер 3,13.601072191995998,14.07154867375113,1,1517501,1848,12655,100
1607544676,Козельская школа-интернат для обучающихся с ограниченными возможностями здоровья,54.0292508,35.7933896,Kaluga,ЦФО,5,Кластер 6,60.901083440803305,224.62984774311812,1,24802,519,1010,76
1615721454,шубинская школа,50.8602511,38.8672733,Voronezh,ЦФО,5,Кластер 6,92.91310458608834,550.6312417785114,1,1248,432,2333,66
1616341424,Дашенька,55.938714,37.4947773,Moskva,ЦФО,7,Кластер 8,22.24526945255581,21.73625811816309,1,1862813,579,8524,81
1617583699,Школа №3,56.2248293,32.7800121,Tver',ЦФО,5,Кластер 6,204.52244327966673,305.2936864871345,1,1475,352,1271,74
1618108202,Школа №1560 корпус им. А. С. Пушкина,55.7796573,37.4960053,MoscowCity,ЦФО,2,Кластер 3,8.270109452367823,8.055409416270436,1,2170453,1848,12655,100
1631221480,МОУ «Октябрьская СОШ им. Ю. Чумака»,50.445646,36.3669029,Belgorod,ЦФО,5,Кластер 6,22.968769410695582,596.3103646693806,1,2664,546,1549,67
1631473029,Школа,51.3301941,34.6803017,Kursk,ЦФО,5,Кластер 6,113.6897713540707,528.8734234147612,1,2212,417,1105,68
1635684783,"Спортивно-технический центр ""Икар""",55.7585593,37.7115837,MoscowCity,ЦФО,2,Кластер 3,5.9158680459104005,5.888514767725282,1,1675115,1848,12655,100
1636755808,Школа №2,53.8090619,36.1349224,Tula,ЦФО,5,Кластер 6,105.85236937776688,236.4128775048614,1,2405,449,1502,81
1647780143,средняя школа №4,53.8134415,36.1317121,Tula,ЦФО,5,Кластер 6,105.84461015024438,236.0479879002372,1,2405,449,1502,81
1651028324,Арт-Колор,55.6024838,38.1003118,Moskva,ЦФО,7,Кластер 8,34.4555479413406,34.73475096212352,1,454930,579,8524,81
1651028329,Центр детского творчества,55.6023881,38.1000342,Moskva,ЦФО,7,Кластер 8,34.44540958325667,34.72484702858222,1,454930,579,8524,81
1668328442,Оксфорд,54.8113472,32.0221596,Smolensk,ЦФО,5,Кластер 6,3.576656594069877,369.459327534596,1,56827,346,944,73
1686029609,Школа,51.409953,34.896073,Kursk,ЦФО,5,Кластер 6,96.44043249352931,515.4490334792562,1,27253,417,1105,68
1688373260,Ардонская школа,52.7280556,32.3163889,Bryansk,ЦФО,5,Кластер 6,148.5416138455064,481.41328083388674,1,12142,329,1196,71
1720606080,Школа №3,51.0802145,40.0124295,Voronezh,ЦФО,5,Кластер 6,87.38511001540171,543.499464297006,1,18875,432,2333,66
1727533933,Знаменская гимназия,55.8575416,37.4997164,MoscowCity,ЦФО,2,Кластер 3,13.96389596614998,13.50012719185688,1,1862813,1848,12655,100
1746436562,"Судогодская детская школа искусств, филиал",56.0625431,40.4892544,Vladimir,ЦФО,5,Кластер 6,9.01514239913956,182.18408807290544,1,84074,353,1378,78
1759342039,Роговатовская школа,51.223575,38.370789,Belgorod,ЦФО,5,Кластер 6,143.09607867745984,506.409548353914,1,1610,546,1549,67
1768340189,Школа №39,50.1833521,39.6101373,Voronezh,ЦФО,5,Кластер 6,168.20205408415706,633.76153811014,1,31767,432,2333,66
1778185712,Школа английского языка Оксфорд,54.7596483,32.107415,Smolensk,ЦФО,5,Кластер 6,4.712206345327011,366.2029276497972,1,103639,346,944,73
1785892467,Школа № 5,51.3098395,39.213692,Voronezh,ЦФО,5,Кластер 6,40.32284435452873,505.46067968941054,1,11196,432,2333,66
1785897460,Школа № 2,51.3103364,39.2071185,Voronezh,ЦФО,5,Кластер 6,40.24699627601887,505.3163257175015,1,11196,432,2333,66
1785916074,Школа № 3,51.3054849,39.2170341,Voronezh,ЦФО,5,Кластер 6,40.818748242174465,505.9812839470396,1,11196,432,2333,66
1787009211,Школа № 17,51.7143152,36.1676098,Kursk,ЦФО,5,Кластер 6,2.4699344582225224,459.3738724742178,1,134431,417,1105,68
1793611216,МОУ СОШ №2,52.8450181,32.6767849,Bryansk,ЦФО,5,Кластер 6,121.15830782297796,455.35073830429405,1,33453,329,1196,71
1795585234,Школа № 1,51.3092037,39.2136386,Voronezh,ЦФО,5,Кластер 6,40.39326305978128,505.52924734973465,1,11196,432,2333,66
1798830345,Богородицкая средняя школа,53.0565254,35.3638496,Orel,ЦФО,5,Кластер 6,48.30265491859363,333.6677224915303,1,2664,313,748,65
1802071852,общеобразовательная школа,53.2030125,35.3138002,Orel,ЦФО,5,Кластер 6,56.967175207431374,320.4671344566931,1,575,313,748,65
1805465499,Школа искусств,52.3861759,38.9203875,Lipetsk,ЦФО,5,Кластер 6,52.20146838512801,384.1878405917134,1,120536,487,1157,65
1814877135,Изразцовая школа,56.5037566,39.6787282,Vladimir,ЦФО,5,Кластер 6,61.22060892113416,152.40997440419932,1,26356,353,1378,78
1818884297,Мантуровская средняя школа,51.4522715,37.1262748,Kursk,ЦФО,5,Кластер 6,71.48630632295504,479.6239294250889,1,3662,417,1105,68
1819782133,1-Засеймская средняя школа,51.4928008,37.1012335,Kursk,ЦФО,5,Кластер 6,68.034490550921,475.2417749295068,1,3662,417,1105,68
1825792740,Начальная Школа №25,50.1792618,39.5985783,Voronezh,ЦФО,5,Кластер 6,168.50834998362654,634.0458570474268,1,31767,432,2333,66
1857576625,ДЮТОШ,52.8434647,32.6656621,Bryansk,ЦФО,5,Кластер 6,121.91547690199884,455.9847435571355,1,33453,329,1196,71
1864105644,СОШ № 6 им. адмирала Авинова,54.9263362,41.3449975,Ryazan',ЦФО,5,Кластер 6,108.04694950644384,253.06654182744853,1,7476,394,1099,72
1867012052,"Центр еврейского образования ""Бейт швидлер""",55.7897637,37.6089304,MoscowCity,ЦФО,2,Кластер 3,4.3474973406214295,3.815319144395362,1,2335731,1848,12655,100
1874679131,"НОУ ""Гармония""",55.8314957,37.9640134,Moskva,ЦФО,7,Кластер 8,23.40967960911663,23.23290863524555,1,352130,579,8524,81
1875978381,Школа № 4,55.6349071,40.6346104,Vladimir,ЦФО,5,Кластер 6,56.76055105323158,189.53422300632647,1,19408,353,1378,78
1886565636,Степанщинская средняя общеобразовательная школа,55.2497905,38.5234738,Moskva,ЦФО,7,Кластер 8,79.73701091445352,80.12641306354733,1,73785,579,8524,81
1892830867,Школа №3,56.1558459,38.8696166,Vladimir,ЦФО,5,Кластер 6,95.22389297736682,89.73750872065324,1,16683,353,1378,78
1893544936,Средняя школа № 2,53.4278576,38.6607674,Tula,ЦФО,5,Кластер 6,109.24450007815476,267.4294648411026,1,2483,449,1502,81
1898677224,Школа №800,55.719514,37.3979587,Moskva,ЦФО,7,Кластер 8,14.21355307221725,14.329504578687407,1,1835205,579,8524,81
1900645110,Автокурсы ВОА / ВДОАМ /,50.2002983,39.5659466,Voronezh,ЦФО,5,Кластер 6,165.81931350115087,631.2993677403362,1,31767,432,2333,66
1900901446,Хомутовская средняя школа,52.8523489,37.4429777,Orel,ЦФО,5,Кластер 6,92.93291123947638,323.04747227839937,1,1340,313,748,65
1902002320,Учебный корпус Автошколы РОСТО,50.1953166,39.5455803,Voronezh,ЦФО,5,Кластер 6,166.14266696615323,631.5641324660717,1,38467,432,2333,66
1903252504,Средняя школа № 3,53.4398466,35.9998234,Orel,ЦФО,5,Кластер 6,52.89623904373423,277.78956017113586,1,4777,313,748,65
1903266149,Знаменская школа,53.2791883,35.6871199,Orel,ЦФО,5,Кластер 6,43.19166189670126,302.2338991660559,1,463,313,748,65
1917776858,Школа № 1,52.5072348,35.1574359,Orel,ЦФО,5,Кластер 6,79.85552660573256,395.1265537180785,1,2847,313,748,65
1919307377,Русско-Бродская школа,52.5994199,37.3603419,Orel,ЦФО,5,Кластер 6,95.87643393161416,351.3718663666137,1,132,313,748,65
1934378417,Должанская СОШ,52.0584899,37.5256022,Orel,ЦФО,5,Кластер 6,141.0120660095227,411.16618787291134,1,13,313,748,65
1945920293,Интерлингва,51.656968,39.2036205,Voronezh,ЦФО,5,Кластер 6,2.1506027100121363,467.5382402379364,1,302771,432,2333,66
1946610217,Новоплевская школа,52.5298787,36.3382445,Orel,ЦФО,5,Кластер 6,51.74644841438291,368.2409009566551,1,11832,313,748,65
1947167782,Школа №423,55.7571365,37.8020241,MoscowCity,ЦФО,2,Кластер 3,11.53541640039288,11.540494118278325,1,943444,1848,12655,100
1949370613,Гимназия № 34,52.9407617,36.0412351,Orel,ЦФО,5,Кластер 6,3.404263029532622,329.2464553277837,1,92911,313,748,65
1951050448,Средняя школа №2,50.5973086,36.0186683,Belgorod,ЦФО,5,Кластер 6,40.185101062742696,583.3701000522151,1,11884,546,1549,67
1956669845,Средняя школа №1,56.2975852,39.3689251,Vladimir,ЦФО,5,Кластер 6,66.81132315153988,124.37864434102224,1,34151,353,1378,78
1956669942,Средняя школа №5,56.2930526,39.3682462,Vladimir,ЦФО,5,Кластер 6,66.7157021627048,124.1039795987804,1,34151,353,1378,78
1956670032,Школа №7,56.2986035,39.3830437,Vladimir,ЦФО,5,Кластер 6,66.00529266445486,125.20005613560512,1,34151,353,1378,78
1958147179,Средняя Школа №2,56.2858734,39.3970554,Vladimir,ЦФО,5,Кластер 6,64.79007174566598,125.30755743455924,1,34151,353,1378,78
1959499205,Школа № 65,55.7226991,37.4144154,MoscowCity,ЦФО,2,Кластер 3,13.12759345462824,13.240855920545432,1,1835205,1848,12655,100
1960163202,Средняя школа №4,56.300911,39.3558388,Vladimir,ЦФО,5,Кластер 6,67.68916912904221,123.8444415294826,1,34151,353,1378,78
1964847396,Малокуликовская средняя общеобразовательная школа,52.892054,36.1872862,Orel,ЦФО,5,Кластер 6,11.375940059366984,331.64910285191536,1,19298,313,748,65
1976909712,Ломоносовская школа,55.717908,37.4211398,MoscowCity,ЦФО,2,Кластер 3,12.862201424300824,13.000529710657398,1,1835205,1848,12655,100
1976909714,Школа здоровья № 239,55.712719,37.4056885,Moskva,ЦФО,7,Кластер 8,13.957754060002308,14.105345932285369,1,1835205,579,8524,81
1976909715,Школа №1195,55.7166073,37.415906,MoscowCity,ЦФО,2,Кластер 3,13.217827709887992,13.35759966258306,1,1835205,1848,12655,100
1976909716,Школа №714,55.7232637,37.4082378,MoscowCity,ЦФО,2,Кластер 3,13.488781118768143,13.59581435472557,1,1835205,1848,12655,100
1984027948,Оковецкая средняя школа,56.6548897,33.4869341,Tver',ЦФО,5,Кластер 6,149.54661792486138,274.28637072065766,1,265,352,1271,74
1988324780,Училище №55,50.189972,39.5764018,Voronezh,ЦФО,5,Кластер 6,167.0720675310494,632.5700215189266,1,31767,432,2333,66
1990357528,Школа №7,50.2054854,39.5180531,Voronezh,ЦФО,5,Кластер 6,164.7398315519435,630.0814900239196,1,38467,432,2333,66
1990357548,Училище № 56,50.2058669,39.5146343,Voronezh,ЦФО,5,Кластер 6,164.66396349897306,629.9938842853014,1,38467,432,2333,66
2002295112,"ШСК ""Орленок""",55.741067,36.8640753,Moskva,ЦФО,7,Кластер 8,47.19889035825636,47.18647625113177,1,138023,579,8524,81
2006275836,УПК,50.1995667,39.557315,Voronezh,ЦФО,5,Кластер 6,165.80315521029905,631.2606343968699,1,31767,432,2333,66
2012346711,Детская школа искусств № 2,51.6525711,39.1443156,Voronezh,ЦФО,5,Кластер 6,3.4870420486543585,467.1632412006938,1,479616,432,2333,66
2019456569,Школа,50.3102831,39.6153528,Voronezh,ЦФО,5,Кластер 6,154.395729655172,620.0049661985323,1,4857,432,2333,66
2026874368,Заборьевская средняя школа,54.808554,39.8732141,Ryazan',ЦФО,5,Кластер 6,21.696208202480097,177.46614650273554,1,7376,394,1099,72
2030718442,Средняя школа №8,53.2653844,36.58678,Orel,ЦФО,5,Кластер 6,47.934669919025794,284.7960354605224,1,27220,313,748,65
2031330580,Профессиональный лицей № 1,52.6154317,38.5174149,Lipetsk,ЦФО,5,Кластер 6,73.0990994707575,354.0590515116574,1,140080,487,1157,65
2035665454,Алябьевская средняя общеобразовательная школа,53.2656097,36.8268336,Orel,ЦФО,5,Кластер 6,60.50733624122832,281.5575666140527,1,0,313,748,65
2044087196,МКОУ Заброденская СОШ,50.4081971,41.0240265,Voronezh,ЦФО,5,Кластер 6,190.51015081667236,636.4738539735464,1,42941,432,2333,66
2044087199,Начальная школа,50.3939395,41.0028457,Voronezh,ЦФО,5,Кластер 6,190.70498952674487,637.4668857133147,1,42941,432,2333,66
2045779244,МОУ Центр «Доверие»,56.7392726,38.8666673,Yaroslavl',ЦФО,5,Кластер 6,116.3900980525356,133.83800347602968,1,69787,442,1255,81
2046181607,Средняя школа,52.7553862,34.9593296,Bryansk,ЦФО,5,Кластер 6,67.28255606006155,375.600277246757,1,864,329,1196,71
2051188563,Шаблыкинская средняя школа,52.854968,35.1976531,Orel,ЦФО,5,Кластер 6,59.785613670710354,358.68497674166935,1,2742,313,748,65
2052803807,Школа,50.1246644,39.7378976,Voronezh,ЦФО,5,Кластер 6,176.384942459949,641.9914983477028,1,13382,432,2333,66
2055233241,Школа №56,51.6497686,36.1442992,Kursk,ЦФО,5,Кластер 6,9.532033465578696,466.7271877097722,1,54619,417,1105,68
2057304640,Школа,54.6137475,39.8490555,Ryazan',ЦФО,5,Кластер 6,7.160295848951812,190.23294288509425,1,798792,394,1099,72
2058535451,Школа №6,50.4279404,40.9987711,Voronezh,ЦФО,5,Кластер 6,187.68086500479737,633.8062087722742,1,42941,432,2333,66
2068105403,Большекрупецкая школа,53.1284883,33.7704355,Bryansk,ЦФО,5,Кластер 6,41.54858230317361,383.59276184132256,1,0,329,1196,71
2069029167,Колпнянский лицей,52.226213,37.0332084,Orel,ЦФО,5,Кластер 6,104.8757945810502,394.32322536668454,1,63245,313,748,65
2069029182,Школа № 2,52.2273431,37.0136272,Orel,ЦФО,5,Кластер 6,103.960812921269,394.3239510352935,1,63245,313,748,65
2069839188,Детская школа искусств им. И. К. Архиповой,57.1556675,33.1033675,Tver',ЦФО,5,Кластер 6,173.2169841653068,317.97469982852755,1,2918,352,1271,74
2075178538,Филипповская СОШ,56.0960946,38.6082962,Vladimir,ЦФО,5,Кластер 6,111.51130623505443,72.39381621947278,1,30233,353,1378,78
2096326172,Дом художественных ремесел,50.1997075,39.536127,Voronezh,ЦФО,5,Кластер 6,165.55997617023817,630.9564031197109,1,38467,432,2333,66
2110419539,Школа,54.5470713,39.8316799,Ryazan',ЦФО,5,Кластер 6,10.822667067636042,194.54532479013875,1,132922,394,1099,72
2112050189,Школа № 4,51.6381876,39.3879737,Voronezh,ЦФО,5,Кластер 6,14.564693394193837,472.4176497884632,1,122628,432,2333,66
2112846626,Школа №587,55.7215752,37.4287987,MoscowCity,ЦФО,2,Кластер 3,12.28817210041017,12.41639758086054,1,1835205,1848,12655,100
2112846627,Школа № 802,55.7244384,37.4270222,MoscowCity,ЦФО,2,Кластер 3,12.314772760287378,12.428824529492273,1,1835205,1848,12655,100
2119032083,Интерлингва. Школа иностр. языков,51.6491212,39.1582917,Voronezh,ЦФО,5,Кластер 6,3.10103773913103,467.73677630482007,1,160112,432,2333,66
2127168128,Школа,54.5907753,39.7997034,Ryazan',ЦФО,5,Кластер 6,5.688311679895691,189.67662992852289,1,798792,394,1099,72
2132807079,Школа № 5,51.6563006,35.6790555,Kursk,ЦФО,5,Кластер 6,36.35997095629575,473.3148144862585,1,26723,417,1105,68
2134746557,Начальная школа,50.147881,39.9905483,Voronezh,ЦФО,5,Кластер 6,178.6569539883062,643.4170467472652,1,33629,432,2333,66
2134746587,Школа,50.1479325,39.992458,Voronezh,ЦФО,5,Кластер 6,178.6939248700953,643.4429334218692,1,33629,432,2333,66
2134853335,Златоуст детский центр,50.2033311,39.5393953,Voronezh,ЦФО,5,Кластер 6,165.19577672000042,630.6052479580864,1,38467,432,2333,66
2137962384,Школа,50.1843354,39.5217437,Voronezh,ЦФО,5,Кластер 6,167.105249205195,632.4405613660518,1,38467,432,2333,66
2138890936,Школа № 43,54.0541547,37.4820037,Tula,ЦФО,5,Кластер 6,17.769240236114427,189.41268891874157,1,44902,449,1502,81
2141034323,Школа № 2,50.4592152,40.1249539,Voronezh,ЦФО,5,Кластер 6,150.02799781334144,612.1682744737441,1,196733,432,2333,66
2146273545,Школа №77,55.7668171,37.7275087,MoscowCity,ЦФО,2,Кластер 3,7.073739180784565,6.9844802587337105,1,1675115,1848,12655,100
2174227445,Жудерская сош,53.2577487,35.2919912,Orel,ЦФО,5,Кластер 6,61.22835643820765,315.7096862536883,1,10,313,748,65
2178674651,МБОУ СОШ №3,57.0395486,34.9679986,Tver',ЦФО,5,Кластер 6,60.665244367879374,216.6802321216903,1,30987,352,1271,74
2178825771,МБОУ СОШ №6,57.0687958,34.981973,Tver',ЦФО,5,Кластер 6,61.01326002713769,218.14954406891937,1,85835,352,1271,74
2178865571,"МБОУ ""Центр образования""",57.0471178,34.9625096,Tver',ЦФО,5,Кластер 6,61.25619395960835,217.47668897663792,1,30987,352,1271,74
2179458096,Нижнеикорецкая средняя общеобразовательная школа,50.9775492,39.7129125,Voronezh,ЦФО,5,Кластер 6,85.51875985154295,549.1372819404907,1,5952,432,2333,66
2180298453,Школа,51.6211762,39.5522075,Voronezh,ЦФО,5,Кластер 6,26.026375727233557,477.02180419818774,1,1073,432,2333,66
2183625519,Лицей № 22,52.9696433,36.0603824,Orel,ЦФО,5,Кластер 6,0.7608911308765622,325.7982566955439,1,158250,313,748,65
2192481630,Школа Диалог,52.9659869,36.0880521,Orel,ЦФО,5,Кластер 6,1.208976605670553,325.6369648101703,1,158250,313,748,65
2192481635,FreeWay,52.9704326,36.0887291,Orel,ЦФО,5,Кластер 6,1.34761962197833,325.15115977059617,1,158250,313,748,65
2202852996,Максимковская основная общеобразовательная школа,56.6467319,33.2719606,Tver',ЦФО,5,Кластер 6,162.65508769192343,286.4137621102115,1,56,352,1271,74
2204237126,Школа,50.1426413,39.6445781,Voronezh,ЦФО,5,Кластер 6,173.09516242981542,638.6844159788104,1,6010,432,2333,66
2235474858,Ревякинская гимназия,54.3672882,37.6541936,Tula,ЦФО,5,Кластер 6,19.52979657007707,154.41304648158228,1,10131,449,1502,81
2236724065,Школа,53.1661753,38.1306424,Tula,ЦФО,5,Кластер 6,119.08289036885834,289.8538539771227,1,35394,449,1502,81
2241123154,Детская школа искусств,51.6888434,35.2829502,Kursk,ЦФО,5,Кластер 6,62.870558495302525,477.53002741607907,1,7060,417,1105,68
2246492393,Школа № 1 им. В. П. Екимецкой,54.6247408,39.7440343,Ryazan',ЦФО,5,Кластер 6,0.5122969073185295,184.4744992915148,1,509773,394,1099,72
2249805060,сош 2,54.2259142,38.8903257,Ryazan',ЦФО,5,Кластер 6,70.96990749858556,188.4897134969804,1,75361,394,1099,72
2254849084,Школа,50.2695571,41.0994613,Voronezh,ЦФО,5,Кластер 6,205.67374825015665,652.792636838371,1,591,432,2333,66
2262304592,Немецкая школа в Москве,55.6643708,37.4953235,MoscowCity,ЦФО,2,Кластер 3,12.323027829800772,12.729209168867262,1,1798038,1848,12655,100
2267067469,Школа №3,55.1145817,38.1710276,Moskva,ЦФО,7,Кластер 8,78.89933354513012,79.38855526371312,1,63201,579,8524,81
2290915861,Школа-интернат спец.корр. 5-го вида,52.1268578,35.0831985,Kursk,ЦФО,5,Кластер 6,87.96469653234743,436.2108339396772,1,9942,417,1105,68
2298608488,Школа №41,56.9774407,41.0510959,Ivanovo,ЦФО,5,Кластер 6,5.354894373655697,251.2901983532927,1,94245,266,1003,81
2299136838,Бояркинская средняя общеобразовательная школа,54.9555033,38.5178428,Moskva,ЦФО,7,Кластер 8,105.16530150804628,105.62636372948909,1,4904,579,8524,81
2302299722,Музкальная школа,55.0618148,38.7565617,Moskva,ЦФО,7,Кластер 8,105.06534072491212,105.4694798519892,1,527237,579,8524,81
2306185069,Школа-интернат VIII вида,56.2908595,37.4756324,Moskva,ЦФО,7,Кластер 8,60.67810063259563,60.146388343068466,1,132848,579,8524,81
2306492442,Школа №2,56.1613643,38.8688615,Vladimir,ЦФО,5,Кластер 6,95.28501233915613,89.99774415986765,1,16683,353,1378,78
2333165755,Начальная школа,54.7325113,37.3982953,Tula,ЦФО,5,Кластер 6,61.63355738607235,114.6304332011524,1,9903,449,1502,81
2352319437,Детский досуговый центр «Аист»,55.7153262,37.779866,MoscowCity,ЦФО,2,Кластер 3,10.882798756386691,11.110809159651993,1,2146742,1848,12655,100
2353674559,Сельцовская школа-интернат,53.3498849,34.1479955,Bryansk,ЦФО,5,Кластер 6,18.636770826855205,348.6710669274725,1,14737,329,1196,71
2354624736,Апекс центр,50.199457,39.5575383,Voronezh,ЦФО,5,Кластер 6,165.8176739253179,631.275664674657,1,31767,432,2333,66
2415127584,школа №12,55.3283016,38.8138079,Moskva,ЦФО,7,Кластер 8,88.71074502780847,89.01205493166134,1,14690,579,8524,81
2416913548,Школа №17,55.2594595,38.7656259,Moskva,ЦФО,7,Кластер 8,90.6085422155733,90.9479888946204,1,14690,579,8524,81
2419382215,Школа № 16,55.8360348,38.3971895,Moskva,ЦФО,7,Кластер 8,49.61708463661304,49.539788449470166,1,529889,579,8524,81
2428811360,Школа №2,55.2034348,34.296062,Smolensk,ЦФО,5,Кластер 6,151.04099581683647,218.1047153247412,1,53186,346,944,73
2444319027,Мариоль,51.7101774,39.1545555,Voronezh,ЦФО,5,Кластер 6,4.7053641563230295,461.0419551052988,1,302771,432,2333,66
2446079745,Углянская школа №1,51.818047,39.5833131,Voronezh,ЦФО,5,Кластер 6,31.929944291731612,456.4545939420771,1,7308,432,2333,66
2447808759,МКОУ Петровская СОШ,51.7155744,40.201885,Voronezh,ЦФО,5,Кластер 6,70.32501748721747,480.24775196104486,1,9006,432,2333,66
2452662590,Вечерняя (сменная) общеобразовательная школа,55.60579,38.1140034,Moskva,ЦФО,7,Кластер 8,35.039282725059685,35.308830205794386,1,454930,579,8524,81
2453510837,Сетская средняя школа,54.6672314,38.1747332,Moskva,ЦФО,7,Кластер 8,125.57848993143298,126.0972741741142,1,172045,579,8524,81
2460187945,Детская школа искусств № 1,51.662434,39.1702789,Voronezh,ЦФО,5,Кластер 6,1.4236947244844742,466.4600976092264,1,302771,432,2333,66
2460213670,Школа №36,54.1618358,37.5905142,Tula,ЦФО,5,Кластер 6,3.870326241997184,177.24916416511886,1,275587,449,1502,81
2558642751,Воскресная школа церкви Евангельских христиан-баптистов Воскресение,55.6427918,37.6760494,MoscowCity,ЦФО,2,Кластер 3,12.570083524049071,13.088821682171304,1,1730772,1848,12655,100
2560001914,Детско-юношеская спортивная школа,56.3867808,41.307883,Vladimir,ЦФО,5,Кластер 6,62.64539764599464,239.507260857712,1,51614,353,1378,78
2564586254,Школа Английского языка,50.2002227,39.565984,Voronezh,ЦФО,5,Кластер 6,165.828035971975,631.3081301880954,1,31767,432,2333,66
2579590590,Летучий корабль,55.6071581,38.0762875,Moskva,ЦФО,7,Кластер 8,32.88401727564245,33.16710909292117,1,454930,579,8524,81
2582351013,Православная школа,54.947174,41.4178427,Ryazan',ЦФО,5,Кластер 6,113.17945962511682,256.4799862163062,1,16019,394,1099,72
2588782740,МБУ ДО Детская школа искусств № 1 им. Т. П. Николаевой,53.2890252,34.2857167,Bryansk,ЦФО,5,Кластер 6,7.300479596823616,348.44609661461607,1,107528,329,1196,71
2608417273,Великописарівська школа,50.4257463,35.4801087,Belgorod,ЦФО,5,Кластер 6,80.6211021609808,609.5433861010245,1,0,546,1549,67
2651593716,ВЭПИ/ВГАУ,50.1989522,39.5622461,Voronezh,ЦФО,5,Кластер 6,165.92548650555915,631.3953418671388,1,31767,432,2333,66
2654760685,Русинская сош,53.4340449,36.5947749,Tula,ЦФО,5,Кластер 6,107.82058707590588,266.4355485089685,1,44,449,1502,81
2654788656,"Молодежный центр ""Юнимакс""",54.9502862,39.027939,Moskva,ЦФО,7,Кластер 8,125.98175908839744,126.37351043363188,1,156739,579,8524,81
2654788659,Центр развития творчества детей и юношества,54.9517363,39.0250974,Moskva,ЦФО,7,Кластер 8,125.73958230618211,126.13138253578268,1,156739,579,8524,81
2655784802,Никольская средняя школа,50.4411173,36.5748337,Belgorod,ЦФО,5,Кластер 6,17.35834241868899,595.0341120227009,1,1489,546,1549,67
2656647739,Школа № 4,56.1005114,38.1357271,Moskva,ЦФО,7,Кластер 8,50.5042543387132,50.109461928086475,1,85516,579,8524,81
2660182052,Школа № 18,55.8777427,38.4326872,Moskva,ЦФО,7,Кластер 8,52.814495731152974,52.69570367356913,1,133367,579,8524,81
2661012140,Центр детского творчества,56.0131176,37.8449904,Moskva,ЦФО,7,Кластер 8,32.40247909403332,31.933917117793783,1,290211,579,8524,81
2661065760,Молодежный центр «Звездный»,55.8960402,37.7094401,Moskva,ЦФО,7,Кластер 8,17.109248460951296,16.61557543732136,1,964558,579,8524,81
2665794904,Школа № 21,56.3256537,38.1508,Moskva,ЦФО,7,Кластер 8,71.96054254958275,71.49758436250028,1,137863,579,8524,81
2665861189,Школа № 7,56.4406186,38.2383458,Moskva,ЦФО,7,Кластер 8,85.79324165188541,85.32664309245904,1,161892,579,8524,81
2668260488,Авсюнинская Средняя школа,55.5650222,39.1187733,Moskva,ЦФО,7,Кластер 8,96.38380406103182,96.51855714613512,1,1397,579,8524,81
2674527546,МБОУ СОШ №5 им. Героя РФ М.Г. Ефремова,55.2025191,34.303199,Smolensk,ЦФО,5,Кластер 6,151.44390738319993,217.70441782685177,1,53186,346,944,73
2674637464,Шаховская специальная (коррекционная) общеобразовательная школа-интернат VIII вида,56.0232436,35.5149426,Moskva,ЦФО,7,Кластер 8,134.59115443128496,134.4399130699904,1,16635,579,8524,81
2680101217,Аннинская Средняя Общеобразовательная школа,55.9348335,39.390133,Vladimir,ЦФО,5,Кластер 6,66.7038090222852,112.42897888875814,1,244848,353,1378,78
2685344083,Школа № 1,56.339105,37.5198247,Moskva,ЦФО,7,Кластер 8,65.67791736793001,65.14415025576574,1,132848,579,8524,81
2685578348,Школа № 6,54.8600595,38.5480737,Moskva,ЦФО,7,Кластер 8,115.23529868524577,115.70551760351742,1,6633,579,8524,81
2697631715,МОУ Привокзальная СОШ,55.9970854,35.9354855,Moskva,ЦФО,7,Кластер 8,108.46368839442124,108.29983337939788,1,22952,579,8524,81
2697766170,Школа №4,56.0155802,35.9309808,Moskva,ЦФО,7,Кластер 8,109.24703775049947,109.07421304945844,1,22952,579,8524,81
2707360405,Ярополецкая средняя общеобразовательная школа,56.1352717,35.8305175,Moskva,ЦФО,7,Кластер 8,119.22342127151246,119.00347618988806,1,4209,579,8524,81
2744177052,ШТБ Лицей №29,50.2178584,39.6303576,Voronezh,ЦФО,5,Кластер 6,164.6885535522017,630.28676452893,1,31767,432,2333,66
2744289893,Школа №6,50.2001231,39.6142481,Voronezh,ЦФО,5,Кластер 6,166.4181380900301,631.9912096295246,1,31767,432,2333,66
2762684384,Межшкольный учебный комбинат,55.5564954,37.7009743,MoscowCity,ЦФО,2,Кластер 3,22.245524596115633,22.770462061130125,1,1730772,1848,12655,100
2762684386,Открытая школа,55.5565676,37.7012257,MoscowCity,ЦФО,2,Кластер 3,22.241415267002065,22.76627619531986,1,1730772,1848,12655,100
2762684387,"Центр детского творчества ""Импульс""",55.5467403,37.7111557,Moskva,ЦФО,7,Кластер 8,23.452644496994463,23.97595199141162,1,854950,579,8524,81
2767052229,Озерская средняя школа,51.2519575,38.0164887,Belgorod,ЦФО,5,Кластер 6,123.8057723087366,501.496454694832,1,4710,546,1549,67
2768046941,МОУ Калиновская средняя школа,51.8974757,34.5141326,Kursk,ЦФО,5,Кластер 6,116.90028822039768,474.80487062011673,1,9248,417,1105,68
2773111859,Школа-интернат,56.2237989,32.780391,Tver',ЦФО,5,Кластер 6,204.5426106092243,305.25490643624715,1,1475,352,1271,74
2817367089,Гимназия,52.4005321,36.5209071,Orel,ЦФО,5,Кластер 6,69.83800589675037,379.8734210118332,1,21489,313,748,65
2831258005,Школа-интернат,55.9892865,36.4800119,Moskva,ЦФО,7,Кластер 8,75.77901161879723,75.56650343955083,1,55153,579,8524,81
2852634964,Magic Dance,54.1635742,37.5910463,Tula,ЦФО,5,Кластер 6,3.6822270940481343,177.05554338262414,1,275587,449,1502,81
2883087005,Муниципальное казённое учреждение дополнительного образования «Давыдовская детская школа искусств»,51.16091,39.4223031,Voronezh,ЦФО,5,Кластер 6,59.18450890730472,524.6653659378426,1,686,432,2333,66
2892392207,Становоколодезьская школа,52.8306208,36.2465195,Orel,ЦФО,5,Кластер 6,19.151992826067836,337.19847389517804,1,642,313,748,65
2910247277,Центр Диагностики и Консультирования 'Высота',55.5868939,38.1366338,Moskva,ЦФО,7,Кластер 8,37.2932240739722,37.57725938881834,1,454930,579,8524,81
2913321384,Центр интеллектуального и духовно-православного развития детей и молодёжи,55.7927745,37.9537835,Moskva,ЦФО,7,Кластер 8,21.509430436746833,21.423795714724836,1,352130,579,8524,81
2917470565,Межшкольный учебный комбинат,51.9082948,39.335898,Voronezh,ЦФО,5,Кластер 6,28.27562509845549,442.3966548598226,1,14678,432,2333,66
2941191027,Усовская начальная школа,55.7370557,37.2086064,Moskva,ЦФО,7,Кластер 8,25.67103583715456,25.682270964001734,1,415434,579,8524,81
2942619205,"Лицей № 1586, корпус 2",55.7141896,37.5146811,MoscowCity,ЦФО,2,Кластер 3,7.654909711782173,7.932423060516302,1,1798038,1848,12655,100
2968740912,Детская школа искусств № 4,51.744028,39.3665695,Voronezh,ЦФО,5,Кластер 6,14.912987352078854,460.6332516799779,1,27137,432,2333,66
2974218806,Детская школа искусств № 7,51.7156192,39.1769541,Voronezh,ЦФО,5,Кластер 6,4.874486340570653,460.77497225402504,1,302771,432,2333,66
2974234450,Детская школа искусств № 8,51.6424408,39.2471545,Voronezh,ЦФО,5,Кластер 6,5.457311375144441,469.76111747100407,1,160112,432,2333,66
2974245152,Детская школа искусств № 9,51.6389573,39.2691037,Voronezh,ЦФО,5,Кластер 6,6.925740543227991,470.4700831763613,1,352016,432,2333,66
2975034195,Ракитянская школа №1,50.83492,35.83082,Belgorod,ЦФО,5,Кластер 6,59.5122206616602,559.8640846600455,1,209268,546,1549,67
2975501457,Детская школа искусств № 12,51.7325783,39.150594,Voronezh,ЦФО,5,Кластер 6,7.118522079418566,458.54907715737846,1,302771,432,2333,66
2975515993,Детская школа искусств № 14,51.7167344,39.2694883,Voronezh,ЦФО,5,Кластер 6,7.711152349373773,462.0430288446626,1,384537,432,2333,66
2975528315,Детская школа искусств № 15,51.6858162,39.0771304,Voronezh,ЦФО,5,Кластер 6,7.5269382078689775,462.6102508525475,1,479616,432,2333,66
2980888450,Станция юных техников № 3,51.6914541,39.2624487,Voronezh,ЦФО,5,Кластер 6,5.825127516938388,464.6753748954129,1,384537,432,2333,66
2980895272,Центр развития творчества детей и юношества «Крылатый»,51.6951964,39.2572592,Voronezh,ЦФО,5,Кластер 6,5.671090988870476,464.1903778517189,1,384537,432,2333,66
2980985007,"Центра дополнительного образования детей ""Созвездие""",51.7026796,39.1421219,Voronezh,ЦФО,5,Кластер 6,4.4689924287545395,461.67947819902065,1,479616,432,2333,66
2981002286,Детский эколого-биологический Центр «Росток»,51.6856004,39.1865355,Voronezh,ЦФО,5,Кластер 6,1.522366359968684,464.1770365022836,1,302771,432,2333,66
2981056586,Реальная школа,51.637499,39.2691335,Voronezh,ЦФО,5,Кластер 6,7.014913053070618,470.6287258714645,1,352016,432,2333,66
2981258541,Центр развития творчества детей и юношества,51.6594547,39.1921416,Voronezh,ЦФО,5,Кластер 6,1.5037450854720704,467.1003319644392,1,302771,432,2333,66
2981272702,Дом детского творчества,51.6478122,39.1316935,Voronezh,ЦФО,5,Кластер 6,4.500125576929917,467.5038978464784,1,91012,432,2333,66
2981279618,Центр научно-технического творчества детей и юношества «Техноград»,51.6494331,39.1591356,Voronezh,ЦФО,5,Кластер 6,3.0394250594157253,467.7148540604869,1,160112,432,2333,66
2981299146,Детско-юношеский центр,51.6551004,39.1291171,Voronezh,ЦФО,5,Кластер 6,4.226137747611355,466.6742800687494,1,479616,432,2333,66
2981312263,Центр детского творчества и спорта «Здоровый ребёнок»,51.7071379,39.1669653,Voronezh,ЦФО,5,Кластер 6,4.079792426704229,461.5515516184696,1,302771,432,2333,66
2981316538,Дома детства и юношества,51.6709557,39.201001,Voronezh,ЦФО,5,Кластер 6,1.178120783591733,465.9800256015786,1,302771,432,2333,66
3008237260,Школа № 2104,55.7495507,37.6585411,MoscowCity,ЦФО,2,Кластер 3,2.5421998638529812,2.6545279882781205,1,2868861,1848,12655,100
3041391839,Филипповская Школа,55.7293782,37.5708461,MoscowCity,ЦФО,2,Кластер 3,3.806937549750363,4.1467889925626285,1,2373579,1848,12655,100
3045953247,Школа №1,50.8366526,40.5862754,Voronezh,ЦФО,5,Кластер 6,134.7225090658238,581.3417336026249,1,24979,432,2333,66
3046942243,Тереховская основная школа,51.344786,38.0549003,Belgorod,ЦФО,5,Кластер 6,132.1473067536465,491.3296966762786,1,26183,546,1549,67
3069231498,Школа №3,55.1529474,33.2366678,Smolensk,ЦФО,5,Кластер 6,86.52695831718484,284.201047373543,1,2321,346,944,73
3099613487,Троицкая средняя школа,51.3644453,37.498447,Belgorod,ЦФО,5,Кластер 6,106.50941842443872,488.3595750723535,1,4445,546,1549,67
3106020899,Средняя коррекционная школа,54.9127729,37.4109291,Moskva,ЦФО,7,Кластер 8,94.12218768214316,94.64715267765088,1,234391,579,8524,81
3107293927,МБОУ СОШ № 9 (младшая школа),54.4834043,36.9910638,Tula,ЦФО,5,Кластер 6,51.85772535663475,146.98467418120987,1,4956,449,1502,81
3139685557,Школа № 1208 имени Героя Советского Союза М.С. Шумилова. Корпус № 4,55.7071909,37.7710406,MoscowCity,ЦФО,2,Кластер 3,10.749683211280638,11.023151385297714,1,2146742,1848,12655,100
3206209441,ГБОУ ЦПМСС «Северо-Запад»,55.815695,37.3984929,MoscowCity,ЦФО,2,Кластер 3,15.496194385012556,15.23248986631055,1,1390456,1848,12655,100
3221838128,Школа № 60,55.736385,37.4141123,MoscowCity,ЦФО,2,Кластер 3,12.864623401124945,12.917423514450766,1,1835205,1848,12655,100
3221838129,Школа № 64,55.7370554,37.4141306,MoscowCity,ЦФО,2,Кластер 3,12.85417338901627,12.903936065414191,1,1835205,1848,12655,100
3318822422,МКОУ Заводская СОШ,50.3603451,41.0083976,Voronezh,ЦФО,5,Кластер 6,193.7899899467185,641.1212652522585,1,42941,432,2333,66
3318822423,МКОУ Краснобратская ООШ,50.4569053,41.009136,Voronezh,ЦФО,5,Кластер 6,185.78934038479284,631.018212456909,1,1252,432,2333,66
3344231373,"МКОУ ""Дзержинская средняя общеобразовательная школа""",51.4551264,39.2303307,Voronezh,ЦФО,5,Кластер 6,24.326966562626662,489.8715075674522,1,7832,432,2333,66
3352952699,Подлесная школа,53.1559628,41.2411874,Tambov,ЦФО,5,Кластер 6,50.386649312278074,371.9678129661551,1,155,339,1027,61
3355480379,веселолопанская станцию юных натуралистов,50.4929404,36.3843457,Belgorod,ЦФО,5,Кластер 6,18.465404396866543,590.9350168179773,1,7993,546,1549,67
3356350443,Школа искусств,50.7098283,39.4349077,Voronezh,ЦФО,5,Кластер 6,108.40786100548412,573.9225484796267,1,18890,432,2333,66
3389911345,Школа №9,55.2114756,34.3204177,Smolensk,ЦФО,5,Кластер 6,152.78171239009563,216.3609803814103,1,53186,346,944,73
3398322636,"Социально-реабилитационный центр ""Преодоление""",55.7716765,37.8490458,MoscowCity,ЦФО,2,Кластер 3,14.636580904440818,14.586240861195725,1,943444,1848,12655,100
3431732875,"Образовательный центр ""Перспектива""",52.4938172,39.9481817,Lipetsk,ЦФО,5,Кластер 6,26.747033173107912,393.1695898860154,1,13062,487,1157,65
3461432036,Интерлингва,50.5601232,36.5666397,Belgorod,ЦФО,5,Кластер 6,4.369106220361109,581.9483309015563,1,285195,546,1549,67
3478419965,Пушкинская школа,54.0087266,38.2924043,Tula,ЦФО,5,Кластер 6,48.569974331447064,199.0007383125856,1,83274,449,1502,81
3490947303,школа искусств,54.0121841,38.2908937,Tula,ЦФО,5,Кластер 6,48.31780093027267,198.6040922031756,1,83274,449,1502,81
3490947304,лицей «Школа менеджеров»,54.0141283,38.2920655,Tula,ЦФО,5,Кластер 6,48.29691403522932,198.4091073142232,1,83274,449,1502,81
3571166793,Краснопоймовская средняя общеобразовательная школа,55.0032151,39.0754984,Moskva,ЦФО,7,Кластер 8,124.06351575376448,124.43638571084772,1,6231,579,8524,81
3588250802,б2о6,55.656123,37.4041211,Moskva,ЦФО,7,Кластер 8,17.05512632159385,17.370399602826577,1,1835205,579,8524,81
3603419627,"Здравствуй, музыка!",55.6046396,38.0707842,Moskva,ЦФО,7,Кластер 8,32.72215659171698,33.01094079138812,1,454930,579,8524,81
3629736312,Контакт,50.4226328,41.0147249,Voronezh,ЦФО,5,Кластер 6,188.87476119086375,634.7406184630664,1,42941,432,2333,66
3648687516,Начальная Школа № 48,55.6401183,38.0126628,Moskva,ЦФО,7,Кластер 8,27.63562720729236,27.89873361462122,1,622788,579,8524,81
3656948438,Станция юных техников,51.6966472,39.0218038,Voronezh,ЦФО,5,Кластер 6,11.51279376634588,460.6881376180104,1,40341,432,2333,66
3662864640,МКОУ Старомеловатская СОШ,50.2775164,40.8685854,Voronezh,ЦФО,5,Кластер 6,194.8087704347104,646.6298593228927,1,2581,432,2333,66
3665061415,МКОУ ДОД Калачеевская ДШИ,50.4245174,41.0180757,Voronezh,ЦФО,5,Кластер 6,188.87781048624404,634.6228282811413,1,42941,432,2333,66
3687280613,МКОУ Подгоренская,50.4616348,41.177881,Voronezh,ЦФО,5,Кластер 6,193.70032882217455,634.634141734757,1,536,432,2333,66
3704639202,"МБУДО ""СД(Ю)ТТ""",51.3036665,37.6008187,Belgorod,ЦФО,5,Кластер 6,105.8675665319774,495.05589640378696,1,207950,546,1549,67
3710919425,ДУДО «Раённы цэнтр творчасці дзяцей і моладзі «Ветразь надзей»» г. п. Хоцімска,53.4061948,32.577771,Smolensk,ЦФО,5,Кластер 6,156.8767272771464,416.6474507029065,1,0,346,944,73
3710919478,Дом рамёстваў,53.4120236,32.5862703,Smolensk,ЦФО,5,Кластер 6,156.36833441110736,415.7974087396886,1,0,346,944,73
3710919479,Школа мастацваў,53.4120034,32.5861748,Smolensk,ЦФО,5,Кластер 6,156.3691195513335,415.8036668247287,1,0,346,944,73
3736329462,Коррекционная школа №14,51.2841204,37.5426134,Belgorod,ЦФО,5,Кластер 6,101.54355918090069,497.25271563911906,1,31102,546,1549,67
3746107252,Аз Веди,52.5846969,39.5147181,Lipetsk,ЦФО,5,Кластер 6,6.316156866201956,373.5715416070568,1,345903,487,1157,65
3752568916,МКОУ СЕМЕНОВСКАЯ СОШ,50.4231678,40.5861687,Voronezh,ЦФО,5,Кластер 6,169.96619745979433,625.0744540612653,1,4348,432,2333,66
3756305511,Глушковская СОШ,51.3421007,34.6346478,Kursk,ЦФО,5,Кластер 6,116.09141202716472,528.7451065617638,1,2566,417,1105,68
3772277417,Детская школа искусств п. Борисоглебский,57.2605731,39.1533884,Yaroslavl',ЦФО,5,Кластер 6,60.08055882845766,192.02313035941836,1,6022,442,1255,81
3784463322,Детская школа искусств села Новая Усмань,51.6439996,39.4136412,Voronezh,ЦФО,5,Кластер 6,16.143777392717087,472.2084500087356,1,122628,432,2333,66
3794027238,Школа Английского,55.8871929,37.6509059,MoscowCity,ЦФО,2,Кластер 3,15.28283803694712,14.757611390890622,1,964558,1848,12655,100
3821220331,МБОУ ЦО №55 им. А.И. Миронова,54.2308015,37.5341729,Tula,ЦФО,5,Кластер 6,6.831963940569894,169.65554859810513,1,137151,449,1502,81
3823037348,Православная гимназия,55.0682812,38.8408406,Moskva,ЦФО,7,Кластер 8,108.26427056225953,108.6537659789238,1,527237,579,8524,81
3830272346,Каменно-Степная школа,51.0374624,40.7327461,Voronezh,ЦФО,5,Кластер 6,128.62132427951863,563.702524745837,1,4544,432,2333,66
3933823872,"Школа танцев ""Импульс""",51.2873826,37.5323537,Belgorod,ЦФО,5,Кластер 6,101.34449444194198,496.89719724782947,1,31102,546,1549,67
4000031682,Школа № 1,54.4830943,36.3127939,Kaluga,ЦФО,5,Кластер 6,4.741261087762128,164.04090631593402,1,550481,519,1010,76
4005576396,Воскресная школа,50.4266061,41.0273821,Voronezh,ЦФО,5,Кластер 6,189.147816518731,634.6256597572818,1,42941,432,2333,66
4043603581,Содружество,55.9471221,37.488755,Moskva,ЦФО,7,Кластер 8,23.252253031915565,22.743410917641743,1,1862813,579,8524,81
4045829302,Смоленская основная общеобразовательная школа,56.6326801,39.1765077,Yaroslavl',ЦФО,5,Кластер 6,118.61291738544207,137.13805595226535,1,0,442,1255,81
4109122593,Воскресная школа,55.7519299,37.8640971,MoscowCity,ЦФО,2,Кластер 3,15.400776255238874,15.430513405261657,1,754496,1848,12655,100
4140165554,Болышевская начальная школа,55.5791875,33.5843958,Smolensk,ЦФО,5,Кластер 6,131.94281818537684,253.66070250748632,1,0,346,944,73
4160687160,"СОШ ""Горки-Х""",55.7029961,37.0198954,Moskva,ЦФО,7,Кластер 8,37.83042613848916,37.88239876710162,1,78113,579,8524,81
4210201292,Школа #6,55.1069885,33.2404134,Smolensk,ЦФО,5,Кластер 6,84.46639100999606,285.3753718008803,1,30404,346,944,73
4226493092,Константиновская основная общеобразовательная школа,56.5536554,38.0205809,Moskva,ЦФО,7,Кластер 8,92.66810321248153,92.16044748022112,1,3520,579,8524,81
4254406732,Байтик,55.4702894,37.2961715,Moskva,ЦФО,7,Кластер 8,37.18624503520479,37.62122189031694,1,396937,579,8524,81
4268427600,Детская школа искусств №7,51.7104609,39.1793057,Voronezh,ЦФО,5,Кластер 6,4.288880549948793,461.3698566482933,1,302771,432,2333,66
4272407095,школа 1,55.115649,33.2397,Smolensk,ЦФО,5,Кластер 6,84.83445089291413,285.1479410016765,1,30404,346,944,73
4277682853,Свято-Сергиевская школа,54.9468201,41.4086223,Ryazan',ЦФО,5,Кластер 6,112.60620352320817,255.94921311370751,1,16019,394,1099,72
4282039089,Школа,51.6035301,38.996726,Voronezh,ЦФО,5,Кластер 6,14.999809909539705,470.5353985931381,1,17690,432,2333,66
4294927392,МБОУ ЦО №6,54.1165503,37.5387843,Tula,ЦФО,5,Кластер 6,9.909747112787084,182.34573740884656,1,44902,449,1502,81
4318556101,Станция юных туристов,52.3266987,35.3742354,Kursk,ЦФО,5,Кластер 6,86.83246962433418,408.41131746573967,1,162504,417,1105,68
4318591693,Центр молодежи,52.3339804,35.3531858,Kursk,ЦФО,5,Кластер 6,88.37893654977711,408.14580931533135,1,162504,417,1105,68
4336875227,"Центр раннего развития ребёнка ""Талант""",54.5063708,36.254346,Kaluga,ЦФО,5,Кластер 6,0.1668378304404089,163.73633926389692,1,550481,519,1010,76
4343321092,Гимназия N30,56.9955053,40.9752256,Ivanovo,ЦФО,5,Кластер 6,0.5176456441117249,248.4408736575875,1,451020,266,1003,81
4349102995,"МБОУ ""Центр образования № 31"" (школа)",54.2162148,37.6157241,Tula,ЦФО,5,Кластер 6,2.5827013913427694,171.19410519570874,1,275587,449,1502,81
4352604725,Lancman School,55.5737094,37.5910065,MoscowCity,ЦФО,2,Кластер 3,19.786384152137956,20.31612998229972,1,2160419,1848,12655,100
4357701492,Лицей N35,56.2424501,34.3246305,Tver',ЦФО,5,Кластер 6,119.0143675147566,211.7660175675932,1,12588,352,1271,74
4357735989,Школа N11,56.2468867,34.3301144,Tver',ЦФО,5,Кластер 6,118.45105324255503,211.55184019449408,1,12588,352,1271,74
4370476291,Средняя школа №2,56.3409789,37.534976,Moskva,ЦФО,7,Кластер 8,65.80496995727593,65.27090615746222,1,132848,579,8524,81
4377810092,школа #2,54.942129,39.3708124,Moskva,ЦФО,7,Кластер 8,142.72198358557588,143.07326257551367,1,766,579,8524,81
4381937594,О'кей инглиш,55.7131516,37.7554185,MoscowCity,ЦФО,2,Кластер 3,9.577905899931991,9.845611768283495,1,2146742,1848,12655,100
4381977804,Лига Роботов,55.7131135,37.7554516,MoscowCity,ЦФО,2,Кластер 3,9.581633247237008,9.849472449474968,1,2146742,1848,12655,100
4392222792,Школа 7,55.0952601,33.2563238,Smolensk,ЦФО,5,Кластер 6,84.85253960650411,284.7775256385528,1,12713,346,944,73
4451436133,Среда обитания - ДЕТИ,54.5264165,36.169095,Kaluga,ЦФО,5,Кластер 6,5.770224721001603,164.80103479651254,1,316796,519,1010,76
4457970499,School Number 5,53.1242613,34.9940053,Bryansk,ЦФО,5,Кластер 6,44.00681074648968,338.183799682,1,27772,329,1196,71
4460612135,Лощиновский филиал Искровской СШ,50.7652826,41.3953632,Volgograd,ЮФО,5,Кластер 6,320.4294112738026,608.9384250365763,3,0,344,2491,75
4473580197,Тресоруковская СОШ,51.213671,39.5131505,Voronezh,ЦФО,5,Кластер 6,55.83645067066362,520.3489600095959,1,789,432,2333,66
4474373196,пту 42,56.8338737,41.4084825,Ivanovo,ЦФО,5,Кластер 6,32.247195867840155,262.79179277114974,1,106591,266,1003,81
4486846682,Киплинг,51.6400616,39.3322501,Voronezh,ЦФО,5,Кластер 6,10.82585541751325,471.3257082576616,1,352016,432,2333,66
4505587090,Начальная школа N22,51.6656734,39.2513742,Voronezh,ЦФО,5,Кластер 6,4.699330363483169,467.3034275930439,1,384537,432,2333,66
4518521699,Мини-школа,55.6942016,37.7877321,MoscowCity,ЦФО,2,Кластер 3,12.364204409630974,12.6656797870771,1,2146742,1848,12655,100
4522677592,Школа №10,55.2066761,34.3148829,Smolensk,ЦФО,5,Кластер 6,152.2884055262994,216.85744346475673,1,53186,346,944,73
4524491594,"Центр развития интеллекта ""Пифагорка""",54.515911,36.2611734,Kaluga,ЦФО,5,Кластер 6,1.154325243567426,162.60134478265476,1,550481,519,1010,76
4537579190,МБОУ Сахзаводская средняя школа,52.4303846,37.517185,Orel,ЦФО,5,Кластер 6,114.26469652568846,369.8271901110496,1,41624,313,748,65
4543538701,Детская школа искусств №5,51.6801999,39.2633216,Voronezh,ЦФО,5,Кластер 6,5.544915823451303,465.90904674315453,1,384537,432,2333,66
4547008136,"МКОУ ""Каширская СОШ""",51.4099756,39.5881129,Voronezh,ЦФО,5,Кластер 6,40.37275253582765,500.38076696478015,1,103651,432,2333,66
4552132489,Здоровая мама,51.71726,39.1693451,Voronezh,ЦФО,5,Кластер 6,5.133045437232059,460.4858019448381,1,302771,432,2333,66
4557082389,Школа #2,54.3171924,40.8590442,Ryazan',ЦФО,5,Кластер 6,80.1290895452446,261.2034131341338,1,24794,394,1099,72
4560199589,Школа №1,53.9464632,32.8559207,Smolensk,ЦФО,5,Кластер 6,106.7307613361346,365.1055937875027,1,5261,346,944,73
4569402091,детская школа #1,56.8605874,40.5422621,Ivanovo,ЦФО,5,Кластер 6,30.38641999220241,218.227205164398,1,95539,266,1003,81
4586560491,Школа 33,54.1857194,37.5950476,Tula,ЦФО,5,Кластер 6,1.6417324240843778,174.59092821702234,1,275587,449,1502,81
4586562595,Школа 9,54.1657953,37.5627567,Tula,ЦФО,5,Кластер 6,4.648818598894611,176.83510523670313,1,275587,449,1502,81
4586603834,Центр образования 2 МБОУ,54.2152619,37.6272488,Tula,ЦФО,5,Кластер 6,2.563583050792174,171.3011267228386,1,275587,449,1502,81
4586603835,Центр образования 7,54.2136418,37.6281306,Tula,ЦФО,5,Кластер 6,2.4067198498918123,171.4814836249159,1,275587,449,1502,81
4586604905,Центр образования 5,54.2258288,37.6292269,Tula,ЦФО,5,Кластер 6,3.735985766195834,170.12665155310188,1,275587,449,1502,81
4586619197,Школа 34,54.1707521,37.5755454,Tula,ЦФО,5,Кластер 6,3.6601679307666033,176.26972091653124,1,275587,449,1502,81
4586656690,Школа 32,54.1724447,37.5690167,Tula,ЦФО,5,Кластер 6,3.869524275389324,176.08837749016286,1,275587,449,1502,81
4586656694,Тульский областной центр образования,54.1850422,37.5997342,Tula,ЦФО,5,Кластер 6,1.4299943482167297,174.66401896792132,1,275587,449,1502,81
4586658994,Школа 58,54.1758296,37.5932143,Tula,ЦФО,5,Кластер 6,2.45777942736342,175.69158551257382,1,275587,449,1502,81
4586662489,Школа 57,54.1921002,37.5817292,Tula,ЦФО,5,Кластер 6,2.296759296135654,173.89054783642362,1,275587,449,1502,81
4586664091,Школа 39,54.1737213,37.6205921,Tula,ЦФО,5,Кластер 6,2.156399006878264,175.9192286325547,1,275587,449,1502,81
4589264594,Детская школа исскусств,53.4442787,36.0057012,Orel,ЦФО,5,Кластер 6,53.35429040502302,277.1887982810673,1,4777,313,748,65
4601340514,Школа,51.7528368,39.5854482,Voronezh,ЦФО,5,Кластер 6,29.082607700838192,463.48023371261087,1,7308,432,2333,66
4602639344,Школа,54.9745026,37.9573708,Moskva,ЦФО,7,Кластер 8,88.9664337497763,89.49026667762219,1,201805,579,8524,81
4609543588,Школа,51.7487503,39.4917034,Voronezh,ЦФО,5,Кластер 6,22.854123202932783,462.24201862856154,1,20779,432,2333,66
4615666723,Учебный автокомбинат,51.6611917,39.1921579,Voronezh,ЦФО,5,Кластер 6,1.3270041769114571,466.91177757245174,1,302771,432,2333,66
4623396890,Лингва,54.8069151,32.0288949,Smolensk,ЦФО,5,Кластер 6,2.956549961663149,369.20999211425016,1,56827,346,944,73
4632278814,Школа №36,56.501759,38.8332763,Vladimir,ЦФО,5,Кластер 6,105.47370152482218,112.0501187519395,1,47700,353,1378,78
4638296890,Старицкая средняя школа,56.5014222,34.9366277,Tver',ЦФО,5,Кластер 6,71.62483407817133,185.66648044654244,1,28658,352,1271,74
4642004020,"Ховринская гимназия ""Лампада""",55.8649026,37.5089872,MoscowCity,ЦФО,2,Кластер 3,14.38107534908196,13.900887766345354,1,1862813,1848,12655,100
4666280400,Территория развития,55.6219083,36.9821289,Moskva,ЦФО,7,Кластер 8,42.364057373928816,42.522086694679935,1,470323,579,8524,81
4666280412,Магистра,55.6163318,36.9820109,Moskva,ЦФО,7,Кластер 8,42.587737306418965,42.752672820442605,1,470323,579,8524,81
4691070299,МБОУ Гусинская СШ,54.7176938,31.3751056,Smolensk,ЦФО,5,Кластер 6,43.5814740305904,412.1110165309954,1,2061,346,944,73
4691070301,Школа-интернат,54.7240835,31.3301676,Smolensk,ЦФО,5,Кластер 6,46.32101541969541,414.6164022066402,1,2875,346,944,73
4704925907,Михневский районный детско-юношеский центр,55.1199552,37.9553855,Moskva,ЦФО,7,Кластер 8,73.32566798333217,73.84348855582701,1,60372,579,8524,81
4711762588,Школа №2,55.1971215,38.3593641,Moskva,ЦФО,7,Кластер 8,77.3047977325103,77.74412139129994,1,39627,579,8524,81
4716265371,Школа,50.7806131,38.8742134,Belgorod,ЦФО,5,Кластер 6,162.33580667887242,559.4665147571365,1,7695,546,1549,67
4738419821,Центр образования 14,54.1343978,37.5830302,Tula,ЦФО,5,Кластер 6,6.881307680584486,180.30521026695064,1,28368,449,1502,81
4739573766,Воронежская духовная семинария,51.6563059,39.243695,Voronezh,ЦФО,5,Кластер 6,4.471784215092658,468.204368208496,1,302771,432,2333,66
4750904981,Школа Виктория-2000,55.7169438,37.5770098,MoscowCity,ЦФО,2,Кластер 3,4.574510092376493,5.012454364188687,1,2373579,1848,12655,100
4752529949,"Школа № 1331 ""Молодая Иверия""",55.7478298,37.5942907,MoscowCity,ЦФО,2,Кластер 3,1.5250745044797376,1.7067803554802312,1,2373579,1848,12655,100
4754031281,"МБУ ""Реальная школа""",51.5494466,39.2366369,Voronezh,ЦФО,5,Кластер 6,14.103712565537656,479.7057581468299,1,7832,432,2333,66
4754031282,Детская школа искусств № 10,51.5495192,39.2363628,Voronezh,ЦФО,5,Кластер 6,14.091043325555445,479.69386227182815,1,7832,432,2333,66
4757773391,Школа № 1150 имени дважды Героя Советского Союза К.К. Рокоссовского,55.9724485,37.1597934,Moskva,ЦФО,7,Кластер 8,37.73434420379032,37.36780684524333,1,495963,579,8524,81
4757773413,Школа № 2,55.67867,37.9004505,Moskva,ЦФО,7,Кластер 8,19.434270988661563,19.68272595323571,1,1705184,579,8524,81
4758174072,"Международная школа русского языка ""Ярославна""",55.1088489,36.5817796,Kaluga,ЦФО,5,Кластер 6,70.1799334623735,97.18635868540666,1,446562,519,1010,76
4760301323,"МБОУ "" Рыбновская школа 2""",54.7304378,39.4914789,Ryazan',ЦФО,5,Кластер 6,19.60957810385165,164.6406721270273,1,164570,394,1099,72
4760323323,"МБОУ ""Кузьминская СШ""",54.8637568,39.6284118,Ryazan',ЦФО,5,Кластер 6,27.08545781438546,161.33545779365056,1,2650,394,1099,72
4760975781,Школа № 887. Отделение дополнительного образования детей,55.7351452,37.4406248,MoscowCity,ЦФО,2,Кластер 3,11.241397502553196,11.312179772180093,1,1835205,1848,12655,100
4826845821,Макарьевская школа,53.4578593,35.9948437,Orel,ЦФО,5,Кластер 6,54.920749036328,276.04650748622646,1,2529,313,748,65
4846353495,"МУ ДО ""Детско-юношеская спортивная школа""",55.8467156,32.2583394,Tver',ЦФО,5,Кластер 6,251.63382703348933,335.01611566926425,1,2158,352,1271,74
4848798023,Начальная школа,54.8271963,38.2833446,Moskva,ЦФО,7,Кластер 8,111.0242765328526,111.52687752923478,1,64711,579,8524,81
4857880422,Утро,55.7253324,37.5256742,MoscowCity,ЦФО,2,Кластер 3,6.445903624925166,6.6774497253307175,1,1798038,1848,12655,100
4866326021,"МОУ ""Куриловская гимназия""",55.0891255,37.0251543,Kaluga,ЦФО,5,Кластер 6,81.52172212753236,83.02415026466113,1,13584,519,1010,76
4873025113,МКОУ Волошинская ООШ,50.8749745,38.9391537,Voronezh,ЦФО,5,Кластер 6,90.24690133380916,549.7501083671975,1,1248,432,2333,66
4882145324,"МБОУ ""Ильинская СОШ""",55.9458809,31.6630383,Tver',ЦФО,5,Кластер 6,280.4054100151451,372.1637145084184,1,0,352,1271,74
4882199773,iTeacher,52.7285246,41.4554446,Tambov,ЦФО,5,Кластер 6,0.8682597232334904,418.79109610278795,1,60984,339,1027,61
4883189121,Начальная общеобразовательная школа,54.8271862,38.2833357,Moskva,ЦФО,7,Кластер 8,111.02510383523897,111.5277063783732,1,64711,579,8524,81
4885903622,"Международная гимназия ""Флагман""",55.7610759,37.8538819,MoscowCity,ЦФО,2,Кластер 3,14.801908776250862,14.795199807617951,1,754496,1848,12655,100
4886560449,Школа искуств,50.1695555,40.4012926,Voronezh,ЦФО,5,Кластер 6,187.5869384536477,648.4026009187082,1,110371,432,2333,66
4894817772,Дмитриевская общеобразовательная школа,52.015915,36.2082124,Kursk,ЦФО,5,Кластер 6,31.809446282470176,425.9670235888404,1,0,417,1105,68
4906560511,Школа,50.7481014,39.2040145,Voronezh,ЦФО,5,Кластер 6,102.74229601796908,566.7040261434458,1,0,432,2333,66
4909731885,Юпитер,54.6085075,39.7864089,Ryazan',ЦФО,5,Кластер 6,3.7067008476748993,187.69335664294775,1,798792,394,1099,72
4910603621,Школа скорочтения и развития интеллекта IQ007,52.3587139,35.3428976,Kursk,ЦФО,5,Кластер 6,90.92459752343,405.8125456497885,1,36216,417,1105,68
4931112206,Елгозинская средняя общеобразовательная школа,56.234062,36.3483617,Moskva,ЦФО,7,Кластер 8,95.49619195020136,95.17233690703044,1,2436,579,8524,81
4959152543,Коррекционная школа-интернат VIII вида №29,55.8015246,37.7016433,MoscowCity,ЦФО,2,Кластер 3,7.676311227550534,7.312484264778265,1,1675115,1848,12655,100
4968049924,Школа #2,53.4402809,36.0165924,Orel,ЦФО,5,Кластер 6,52.85745305247805,277.3415201578338,1,4777,313,748,65
4976473622,Сярэдняя школа №5,53.7470526,31.7193694,Smolensk,ЦФО,5,Кластер 6,117.00743564434867,439.2867816519544,1,3467,346,944,73
4987024023,Православная гимназия,54.8983235,37.3983615,Moskva,ЦФО,7,Кластер 8,95.82587552318584,96.35023466074766,1,234391,579,8524,81
4992562368,МКОУ Нижнеольшанская СОШ,50.756828,38.9212695,Voronezh,ЦФО,5,Кластер 6,103.39465540252311,562.5571896548608,1,7695,432,2333,66
4992565621,Школа,53.5486557,32.5875795,Smolensk,ЦФО,5,Кластер 6,141.615997673496,405.9606457662977,1,0,346,944,73
4992591587,МКОУ Петренковская ООШ,50.7918623,39.1378914,Voronezh,ЦФО,5,Кластер 6,97.9194834677818,561.1086214874107,1,10174,432,2333,66
5014779723,Лицей №21,52.705561,41.4587953,Tambov,ЦФО,5,Кластер 6,1.7767170628899585,421.0144484149934,1,60984,339,1027,61
5030344723,ТАЛАШКИНСКАЯ СОШ,54.6600381,32.2044764,Smolensk,ЦФО,5,Кластер 6,16.994412152669703,364.30647797826833,1,17980,346,944,73
5045257699,Школа баристы и барменов,55.8052147,37.528516,MoscowCity,ЦФО,2,Кластер 3,8.22535299143192,7.824513338449748,1,2170453,1848,12655,100
5046656521,International English Centre,55.7440751,37.9994522,Moskva,ЦФО,7,Кластер 8,23.885571701585015,23.93225869776187,1,882917,579,8524,81
5054611710,"Школа ""Виктория""",55.7573563,37.5723477,MoscowCity,ЦФО,2,Кластер 3,2.942800170812705,2.8367423469990496,1,2335731,1848,12655,100
5054611711,Свято-Димитриевская школа,55.7232298,37.6002213,MoscowCity,ЦФО,2,Кластер 3,3.2823585365473784,3.7815001811789775,1,2373579,1848,12655,100
5083242739,Британский центр,55.4757818,37.3032721,Moskva,ЦФО,7,Кластер 8,36.43049915539259,36.86588653402535,1,396937,579,8524,81
5092714240,Дополнительное образование школы № 601,55.8034934,37.5409607,MoscowCity,ЦФО,2,Кластер 3,7.568491481961843,7.1479277135035435,1,2170453,1848,12655,100
5113395065,Школа №370 им. генерала П. И. Батова,55.810851,37.7292703,MoscowCity,ЦФО,2,Кластер 3,9.62823616956988,9.285813979325424,1,1675115,1848,12655,100
5116900535,"Языковой центр ""Пойми мир""",51.6508867,39.1761478,Voronezh,ЦФО,5,Кластер 6,2.409355394346279,467.8002952276824,1,302771,432,2333,66
5175493437,Елань-Коленовская специальная (коррекционная) общеобразовательная школа-интернат,51.1486533,41.2315071,Voronezh,ЦФО,5,Кластер 6,153.46227630007297,565.238141713106,1,2535,432,2333,66
5176669672,Детско-юношеский центр имени Титова Ю.Т.,51.1169923,40.7251404,Voronezh,ЦФО,5,Кластер 6,123.453220850095,555.2277827261634,1,22328,432,2333,66
5194767880,Интернат Ламской средней школы,52.9698834,38.0430303,Lipetsk,ЦФО,5,Кластер 6,112.16272962181424,311.00192028157437,1,2049,487,1157,65
5199351212,Школа №334 (встр),55.8049005,37.7927944,MoscowCity,ЦФО,2,Кластер 3,12.466264888540888,12.240404509214676,1,943444,1848,12655,100
5201184021,Воскресная школа,55.1827147,36.643673,Kaluga,ЦФО,5,Кластер 6,79.21000790148723,88.48092861022698,1,95532,519,1010,76
5203548222,"ЧУДО ""Китмир""",54.870303,37.2136279,Moskva,ЦФО,7,Кластер 8,101.21691400211152,101.72664415897276,1,26308,579,8524,81
5205670421,Кромская средняя школа,52.6882956,35.7608365,Orel,ЦФО,5,Кластер 6,37.215385315511426,361.7856938812048,1,41359,313,748,65
5205725826,Кромская начальная школа,52.689278,35.7585812,Orel,ЦФО,5,Кластер 6,37.20965331995033,361.73111977475054,1,41359,313,748,65
5224881204,"Частная школа-лицей ""Перспектива""",55.5253982,37.6613218,Moskva,ЦФО,7,Кластер 8,25.232685558271527,25.76602129572948,1,854950,579,8524,81
5247665181,Профессиональный лицей № 22,53.0064302,36.1550778,Orel,ЦФО,5,Кластер 6,7.255694033984633,320.03186038534085,1,43302,313,748,65
5277001435,Школа-интернат Развитие коррекционная,55.6918676,37.9755226,Moskva,ЦФО,7,Кластер 8,23.335971449750826,23.5145041926935,1,882917,579,8524,81
5279396755,МБУ ДО «Старицкая детская школа искусств»,56.5191146,34.9332795,Tver',ЦФО,5,Кластер 6,70.71267470038221,186.703570072484,1,28658,352,1271,74
5336819321,"Школа искусств ""Перспектива""",55.5854819,37.7335077,MoscowCity,ЦФО,2,Кластер 3,19.778955764873498,20.285366106399927,1,1730772,1848,12655,100
5340244621,ФГБОУ СОШ Горки,55.4961226,37.7696168,Moskva,ЦФО,7,Кластер 8,29.89695605335096,30.411078230368236,1,1010654,579,8524,81
5342945334,Райсеменовская средняя общеобразовательная школа,55.0065551,37.3462643,Moskva,ЦФО,7,Кластер 8,84.53965696834254,85.05703500856161,1,79607,579,8524,81
5375626463,Международная школа Wunderpark,55.8150747,37.0369083,Moskva,ЦФО,7,Кластер 8,37.02636418934178,36.900567214656526,1,126073,579,8524,81
5392473021,Перспектива,55.6966698,37.5075131,MoscowCity,ЦФО,2,Кластер 3,9.185284904008276,9.526349481398316,1,1798038,1848,12655,100
5406924344,Николо-кропоткинская школа,56.7326017,37.927952,Moskva,ЦФО,7,Кластер 8,110.81632093418747,110.29474158589557,1,831,579,8524,81
5416332250,Гимназия Святителя Василия Великого,55.62084,37.15642,Moskva,ЦФО,7,Кластер 8,32.35148459010569,32.5699249792099,1,609469,579,8524,81
5465279532,МОУ «Основная общеобразовательная Дмитриевская школа»,51.2192306,38.1251371,Belgorod,ЦФО,5,Кластер 6,128.07043201855802,505.5561075340227,1,940,546,1549,67
5486541323,МБОУ ЦО № 23 им. Н. А. Макаровца,54.1946722,37.6069936,Tula,ЦФО,5,Кластер 6,0.6769920714795826,173.59081030571366,1,275587,449,1502,81
5506480825,Преснецовская СОШ,55.4052826,35.654459,Moskva,ЦФО,7,Кластер 8,129.2642094983702,129.39273894767786,1,337,579,8524,81
5516069007,Мокровская школа,55.4510416,35.5103745,Moskva,ЦФО,7,Кластер 8,136.53122806904932,136.63037628422825,1,26086,579,8524,81
5518304350,Воскресная группа при храме Николая Чудотворца села Никольское,52.15405,39.6573,Lipetsk,ЦФО,5,Кластер 6,50.62653952801536,422.0990699506254,1,1057,487,1157,65
5520773622,Колодезянская СОШ,51.3500968,39.2925885,Voronezh,ЦФО,5,Кластер 6,36.57431957589259,502.1922836703875,1,16176,432,2333,66
5530825721,Православная Гимназия Кирилла и Мефодия,50.6147036,36.5741904,Belgorod,ЦФО,5,Кластер 6,2.196571649039416,575.8579570806171,1,285195,546,1549,67
5535522073,Школа №3,50.4500052,40.1331278,Voronezh,ЦФО,5,Кластер 6,151.20166498151303,613.3066352871688,1,196733,432,2333,66
5538765383,"МБОУ ""Токарёвская средняя школа""",55.3207138,35.1125581,Smolensk,ЦФО,5,Кластер 6,204.3506753550939,164.8648618618657,1,15,346,944,73
5565961822,Чулковская средняя школа,54.7352943,38.8386231,Moskva,ЦФО,7,Кластер 8,136.90036006773735,137.3526292141095,1,11924,579,8524,81
5576888499,"Муниципальное общеобразовательное учреждение ""Троицко-Росляйская средняя общеобразовательная школа""",53.3595795,41.3853264,Tambov,ЦФО,5,Кластер 6,71.14656847274436,360.47471358054145,1,0,339,1027,61
5585086971,Тропарёвская средняя общеобразовательная школа,55.3745336,35.8965551,Moskva,ЦФО,7,Кластер 8,116.05476104445287,116.21873834285294,1,25567,579,8524,81
5599956921,Жуковская средняя общеобразовательная школа,50.427195,38.6360353,Belgorod,ЦФО,5,Кластер 6,146.03857391452715,596.3862652129257,1,1853,546,1549,67
5601185228,Международный инновационный образовательный центр,55.691929,37.6243869,MoscowCity,ЦФО,2,Кластер 3,6.580563234848199,7.1148369863537075,1,2373579,1848,12655,100
5619778474,Подосиновская школа,51.1246841,41.3501948,Voronezh,ЦФО,5,Кластер 6,162.12654389266348,571.0274669654648,1,2822,432,2333,66
5634481148,НОУ «Первая Школа»,55.8829735,37.4915995,Moskva,ЦФО,7,Кластер 8,16.664535225414546,16.184097994759057,1,1862813,579,8524,81
5646913321,Школа боевых искусств Вафукан,54.5331073,36.2640239,Kaluga,ЦФО,5,Кластер 6,3.0049304739897953,160.87657072847392,1,550481,519,1010,76
5660523622,Православный центр непрерывного образования во имя прп. Серафима Саровского,55.5903957,37.7598343,MoscowCity,ЦФО,2,Кластер 3,19.950633752649686,20.440474720141857,1,1328730,1848,12655,100
5667688542,Краснянская школа,51.1702573,41.473783,Voronezh,ЦФО,5,Кластер 6,168.2821284605542,570.010098681893,1,1234,432,2333,66
5685712072,Воздвиженская СОШ,56.3847064,36.2862427,Moskva,ЦФО,7,Кластер 8,108.61695713250896,108.24861718019191,1,391,579,8524,81
5745679937,Дмитровская прогимназия 5,56.3381831,37.5213543,Moskva,ЦФО,7,Кластер 8,65.56709241925947,65.03329433338672,1,132848,579,8524,81
5769156817,Тульская Православная классическая гимназия,54.19314,37.62333,Tula,ЦФО,5,Кластер 6,0.4120937680382981,173.76024870019083,1,275587,449,1502,81
5787927156,Областная спортивная школа олимпийского резерва,54.1848909,37.6172224,Tula,ЦФО,5,Кластер 6,0.9018068724107275,174.67712380164676,1,275587,449,1502,81
5800842228,Центр немецкого языка DE Lingua,55.7063408,37.5965042,MoscowCity,ЦФО,2,Кластер 3,5.145051091984045,5.656000828196406,1,2373579,1848,12655,100
5814618451,СОШ № 3 им. С.В.Ишеева,54.4826485,37.6888626,Tula,ЦФО,5,Кластер 6,32.54262037408617,141.64047369925316,1,34413,449,1502,81
5815045917,Детско-юношеская спортивная школа,54.4778344,37.6920132,Tula,ЦФО,5,Кластер 6,32.043324608747426,142.18203818462538,1,34413,449,1502,81
5868407965,Школа,51.0935182,40.9773929,Voronezh,ЦФО,5,Кластер 6,140.09291502676567,564.0333564290074,1,0,432,2333,66
5875284671,"МБУДО ""Станция юных техников""",51.2855737,37.5238708,Belgorod,ЦФО,5,Кластер 6,100.8054741705816,497.1049781330544,1,31102,546,1549,67
6039011974,Воскресная школа,55.6037953,37.171006,Moskva,ЦФО,7,Кластер 8,32.45522668958128,32.704708523032,1,609469,579,8524,81
6045635792,МОУ Планета Детства отделение № 2,56.4424926,36.5574615,Moskva,ЦФО,7,Кластер 8,101.18531090530504,100.76148783145108,1,90644,579,8524,81
6047846385,W. E. Love Groove,51.6949675,39.1852023,Voronezh,ЦФО,5,Кластер 6,2.555214233088276,463.13962874453154,1,302771,432,2333,66
6050114811,Big Ben,55.6649753,37.7545153,MoscowCity,ЦФО,2,Кластер 3,12.83135190503309,13.249890154284364,1,2146742,1848,12655,100
6052716488,"АНО СДЦ ""Барс""",55.6977391,37.7738466,MoscowCity,ЦФО,2,Кластер 3,11.415819152750789,11.722009470506537,1,2146742,1848,12655,100
6067290559,Барс,55.7029264,37.7502666,MoscowCity,ЦФО,2,Кластер 3,9.857522670877588,10.176879192505412,1,2146742,1848,12655,100
6082349286,"МОУ ""Средняя школа №11""",56.8654629,37.3551969,Tver',ЦФО,5,Кластер 6,87.72626792557494,124.4455591898434,1,27667,352,1271,74
6091054091,МОУ СОШ №27 Начальная школа,56.8389776,35.9295389,Tver',ЦФО,5,Кластер 6,2.468642040216444,159.22197417544007,1,324268,352,1271,74
6100272958,"Образовательный центр ""Юниум""",55.74963,37.8232839,MoscowCity,ЦФО,2,Кластер 3,12.84767729814237,12.889286505259236,1,2146742,1848,12655,100
6108831563,Средняя школа,54.7273681,36.8272066,Kaluga,ЦФО,5,Кластер 6,44.4074869779061,124.84998466225694,1,0,519,1010,76
6124020291,Школа,54.6275419,41.1517395,Ryazan',ЦФО,5,Кластер 6,90.80565958684645,256.9797367161121,1,2994,394,1099,72
6142125494,Детско-юношеская спортивная школа,57.344139,36.0426612,Tver',ЦФО,5,Кластер 6,54.51910900815633,201.26104247341084,1,12785,352,1271,74
6171677985,МБОУ «Общеобразовательная школа-интернат среднего (полного) общего образования»,54.7934438,38.2643058,Moskva,ЦФО,7,Кластер 8,114.0738095295468,114.58031073571232,1,64711,579,8524,81
6208862392,Есинская школа,56.2106621,34.1768931,Tver',ЦФО,5,Кластер 6,128.50898484047408,219.9032121058663,1,3377,352,1271,74
6236330921,Ковчег,55.0091961,36.447519,Kaluga,ЦФО,5,Кластер 6,57.2333972681378,111.15102534842616,1,48991,519,1010,76
6248676804,МБОУ МО Плавская СОШ №2,53.7045233,37.2883906,Tula,ЦФО,5,Кластер 6,58.4178165141187,229.06816153953457,1,35087,449,1502,81
6276478291,Пороховская Основная Общеобразовательная школа,56.0038914,35.9240292,Moskva,ЦФО,7,Кластер 8,109.33851793484664,109.17203305900252,1,22952,579,8524,81
6283577785,"МКОУ ""Хомутовская средняя общеобразовательная школа с углубленным изучением английского языка""",51.9199204,34.5617584,Kursk,ЦФО,5,Кластер 6,114.07750114783197,471.1942735336444,1,3535,417,1105,68
6299092036,Лицей НИУ ВШЭ,55.7523702,37.6374355,MoscowCity,ЦФО,2,Кластер 3,1.225747426586001,1.2984670253929778,1,2335731,1848,12655,100
6312334815,Классика,55.5593378,36.9788068,Moskva,ЦФО,7,Кластер 8,45.40999974568793,45.63872885427714,1,470323,579,8524,81
6336899460,Шурскольская школа,57.1536406,39.2914225,Yaroslavl',ЦФО,5,Кластер 6,63.70459806647395,186.36719429324108,1,3268,442,1255,81
6336996459,Школа № 12,56.3337893,36.7060052,Moskva,ЦФО,7,Кластер 8,86.06895046133405,85.6490772315472,1,162041,579,8524,81
6343642099,Восьмилетняя школа № 51,57.0219593,40.9911364,Ivanovo,ЦФО,5,Кластер 6,2.6772912839686924,250.8340871853727,1,451020,266,1003,81
6351668972,НОШ № 135,55.4274143,35.7486386,Moskva,ЦФО,7,Кластер 8,122.85089376511712,122.9773842338616,1,337,579,8524,81
6403542585,Школа скорочтения IQ007,56.7399823,37.1639204,Moskva,ЦФО,7,Кластер 8,113.491311731842,112.96765145202986,1,55262,579,8524,81
6413499947,Итальянская школа им. Итало Кальвино,55.682994,37.5341919,MoscowCity,ЦФО,2,Кластер 3,9.205276234282364,9.634747811193677,1,1798038,1848,12655,100
6413499948,Шведская школа,55.6829965,37.5340337,MoscowCity,ЦФО,2,Кластер 3,9.210701864923289,9.6398899220883,1,1798038,1848,12655,100
6413499949,Московская финская школа,55.682999,37.5338754,MoscowCity,ЦФО,2,Кластер 3,9.21613854329911,9.645042882142636,1,1798038,1848,12655,100
6413499950,Московская японская школа,55.6830015,37.5337172,MoscowCity,ЦФО,2,Кластер 3,9.221579099008808,9.650199874084958,1,1798038,1848,12655,100
6518580941,Школа скорочтения,55.7538074,37.8871429,Moskva,ЦФО,7,Кластер 8,16.845090343322436,16.86764590196188,1,754496,579,8524,81
6564941585,Суздальская православная гимназия,56.4201139,40.4533081,Vladimir,ЦФО,5,Кластер 6,32.50187949287189,190.7820404812709,1,42719,353,1378,78
6594526080,Байтик,55.4873199,37.3064922,Moskva,ЦФО,7,Кластер 8,35.245378960103615,35.676195873640786,1,396937,579,8524,81
6635203285,Младшая школа #4,55.855464,37.1202771,Moskva,ЦФО,7,Кластер 8,33.203535515059805,32.99525120220075,1,109168,579,8524,81
6654707787,Школа №2,55.93416,39.6270564,Vladimir,ЦФО,5,Кластер 6,53.0224852061316,127.00088838136382,1,10464,353,1378,78
6665428945,"Центр спорта и образования ""Локомотив""",55.8061697,37.7423295,MoscowCity,ЦФО,2,Кластер 3,9.903700990814828,9.602175392441575,1,1675115,1848,12655,100
6677788874,Кванториум,56.857087,35.9140566,Tver',ЦФО,5,Кластер 6,0.2467371886249844,161.35449657106454,1,180031,352,1271,74
6687960610,Школа №2,56.291052,37.4774464,Moskva,ЦФО,7,Кластер 8,60.68294534883874,60.15113458255589,1,132848,579,8524,81
6731754885,Оревская ООШ,56.4302562,37.4724998,Moskva,ЦФО,7,Кластер 8,76.0671847941431,75.53421920673246,1,156523,579,8524,81
6739563469,Ильинска СОШ,57.3241159,38.5020007,Yaroslavl',ЦФО,5,Кластер 6,89.679179561781,182.61941143769783,1,216,442,1255,81
6742585559,Василёвская СОШ,57.2371617,38.5876993,Yaroslavl',ЦФО,5,Кластер 6,89.29468981113598,175.1468288651777,1,0,442,1255,81
6742841900,Общеобразовательная школа,57.2019382,38.2442617,Yaroslavl',ЦФО,5,Кластер 6,109.4138258643326,165.34165144817365,1,50,442,1255,81
6746555231,Улейминская средняя общеобразовательная школа,57.4400115,38.4080999,Yaroslavl',ЦФО,5,Кластер 6,91.01381359152548,193.42290864937544,1,312,442,1255,81
